Project ID,Project Name,Project Start Date,Project Completion Date,Building ID,Number,Street,Address,Borough,Postcode,BBL,BIN,Community Board,Council District,Census Tract,NTA - Neighborhood Tabulation Area,Latitude,Longitude,Latitude (Internal),Longitude (Internal),Building Completion Date,Reporting Construction Type,Extended Affordability Only,Prevailing Wage Status,Extremely Low Income Units,Very Low Income Units,Low Income Units,Moderate Income Units,Middle Income Units,Other Income Units,Studio Units,1-BR Units,2-BR Units,3-BR Units,4-BR Units,5-BR Units,6-BR+ Units,Unknown-BR Units,Counted Rental Units,Counted Homeownership Units,All Counted Units,Total Units
71541,BG. 97-04 SUTPHIN BLVD.,3/30/23,,1008537,97-04,SUTPHIN BOULEVARD,97-04 SUTPHIN BOULEVARD,Queens,11435,4100300006,4214585,QN-12,28,208,QN61,40.697162,-73.805689,40.69691,-73.805971,,New Construction,No,Prevailing Wage,172,0,0,0,0,1,107,65,1,0,0,0,0,0,173,0,173,173
72791,210 GREENPOINT AVENUE A/K/A 237 MCGUINNESS BOULEVARD,3/29/23,,1008308,237,MCGUINNESS BOULEVARD,237 MCGUINNESS BOULEVARD,Brooklyn,11222,3025760007,3065200,BK-01,33,575,BK76,40.730107,-73.951295,40.73017,-73.951745,,New Construction,No,Non Prevailing Wage,0,0,13,0,0,0,2,4,7,0,0,0,0,0,13,0,13,70
73666,32-18 UNION STREET,3/29/23,,700120,32-18,UNION STREET,32-18 UNION STREET,Queens,11354,4049540035,4112058,QN-07,20,88901,QN22,40.768683,-73.826708,40.7684,-73.827019,,New Construction,No,Non Prevailing Wage,0,0,0,0,3,0,0,3,0,0,0,0,0,0,3,0,3,8
73667,1009 NELSON AVE APARTMENTS,3/29/23,,832351,1008,OGDEN AVENUE,1008 OGDEN AVENUE,Bronx,10452,2025120004,2000000,BX-04,8,189,BX26,40.833284,-73.929168,40.83309,-73.928897,,New Construction,No,Non Prevailing Wage,0,0,0,0,5,0,5,0,0,0,0,0,0,0,5,0,5,16
73668,2279 BARKER AVENUE,3/28/23,,47140,2279,BARKER AVENUE,2279 BARKER AVENUE,Bronx,10467,2043400075,2049749,BX-11,15,33201,BX07,40.85954,-73.869506,40.85971,-73.869773,,New Construction,No,Non Prevailing Wage,0,0,0,0,22,0,6,13,3,0,0,0,0,0,22,0,22,23
73669,101 AVENUE,3/28/23,,994402,129-19,101 AVENUE,129-19 101 AVENUE,Queens,11419,4094730026,4000000,QN-09,28,154,QN54,40.692307,-73.81774,40.69257,-73.8177,,New Construction,No,Non Prevailing Wage,0,0,0,0,3,0,0,1,0,2,0,0,0,0,3,0,3,10
73669,101 AVENUE,3/28/23,,1008703,129-21,101 AVENUE,129-21 101 AVENUE,Queens,11419,4094730024,4000000,QN-09,29,154,QN54,40.69231,-73.817729,40.69261,-73.81758,,New Construction,No,Non Prevailing Wage,0,0,0,0,3,0,0,1,0,2,0,0,0,0,3,0,3,10
73669,101 AVENUE,3/28/23,,1008705,129-25,101 AVENUE,129-25 101 AVENUE,Queens,11419,4094730022,4000000,QN-09,29,154,QN54,40.692315,-73.817708,40.69264,-73.817476,,New Construction,No,Non Prevailing Wage,0,0,0,0,3,0,0,1,0,2,0,0,0,0,3,0,3,7
73670,1181 & 1183 NEW YORK AVENUE,3/28/23,,1006448,1183,NEW YORK AVENUE,1183 NEW YORK AVENUE,Brooklyn,11203,3049330053,3110834,BK-17,45,854,BK91,40.644163,-73.945938,40.64423,-73.945639,,New Construction,No,Non Prevailing Wage,0,0,0,0,3,0,1,2,0,0,0,0,0,0,3,0,3,9
73670,1181 & 1183 NEW YORK AVENUE,3/28/23,,1008525,1181,NEW YORK AVENUE,1181 NEW YORK AVENUE,Brooklyn,11203,3049330054,3428623,BK-17,45,854,BK91,40.644205,-73.945941,40.64426,-73.945642,,New Construction,No,Non Prevailing Wage,0,0,0,0,3,0,1,2,0,0,0,0,0,0,3,0,3,9
73671,106 MT HOPE,3/27/23,,1008530,106,MT HOPE PLACE,106 MT HOPE PLACE,Bronx,10453,2028050010,2000000,BX-05,14,23301,BX41,40.84878,-73.907992,40.84857,-73.908022,,New Construction,No,Non Prevailing Wage,0,0,0,0,14,0,9,5,0,0,0,0,0,0,14,0,14,44
73672,317 FRANKLIN AVENUE,3/20/23,,295722,317,FRANKLIN AVENUE,317 FRANKLIN AVENUE,Brooklyn,11238,3019500003,3321884,BK-03,36,233,BK75,40.688705,-73.957148,40.68876,-73.956878,,New Construction,No,Non Prevailing Wage,0,0,0,0,5,0,0,2,3,0,0,0,0,0,5,0,5,10
73673,2801 TILDEN AVENUE,3/20/23,,381334,2801,TILDEN AVENUE,2801 TILDEN AVENUE,Brooklyn,11226,3051300125,3117838,BK-17,40,824,BK95,40.646825,-73.950919,40.64704,-73.950912,,New Construction,No,Non Prevailing Wage,0,0,0,0,4,0,0,2,2,0,0,0,0,0,4,0,4,13
73674,1135 TELLER AVENUE,3/20/23,,112760,1137,TELLER AVENUE,1137 TELLER AVENUE,Bronx,10456,2024340070,2000000,BX-04,16,175,BX14,40.830737,-73.912527,40.83072,-73.91282,,New Construction,No,Non Prevailing Wage,0,0,0,0,43,0,0,28,15,0,0,0,0,0,43,0,43,44
73675,94 EAST 208 STREET,3/17/23,,67511,94,EAST 208 STREET,94 EAST 208 STREET,Bronx,10467,2033260034,2000000,BX-07,11,419,BX43,40.878503,-73.881691,40.87828,-73.881872,,New Construction,No,Non Prevailing Wage,0,0,0,0,7,0,0,7,0,0,0,0,0,0,7,0,7,8
73676,577 EAST 161 STREET,3/16/23,,1008704,577,EAST 161 STREET,577 EAST 161 STREET,Bronx,10456,,,BX-03,17,141,BX35,40.822283,-73.908806,,,,New Construction,No,Non Prevailing Wage,0,0,0,0,4,0,2,1,1,0,0,0,0,0,4,0,4,13
73677,1791 MARMION AVENUE,3/16/23,,991423,1791,MARMION AVENUE,1791 MARMION AVENUE,Bronx,10460,2029520056,2010013,BX-06,17,367,BX17,40.840154,-73.889905,40.84034,-73.890104,,New Construction,No,Non Prevailing Wage,0,0,0,0,26,0,11,9,6,0,0,0,0,0,26,0,26,27
73678,92 WEST 169 STREET APARTMENTS,3/15/23,,839351,92,WEST 169 STREET,92 WEST 169 STREET,Bronx,10452,,,BX-04,16,211,BX26,40.839533,-73.923209,,,,New Construction,No,Non Prevailing Wage,0,0,0,0,12,0,6,4,2,0,0,0,0,0,12,0,12,38
73689,865 ROGERS AVENUE APARTMENTS,3/15/23,,364014,865,ROGERS AVENUE,865 ROGERS AVENUE,Brooklyn,11226,3051080011,3000000,BK-17,14,824,BK95,40.649335,-73.952316,40.64946,-73.952042,,New Construction,No,Non Prevailing Wage,0,0,0,0,8,0,1,5,2,0,0,0,0,0,8,0,8,26
73690,1950 AMSTERDAM AVENUE APARMTENTS,3/15/23,,5719,1950,AMSTERDAM AVENUE,1950 AMSTERDAM AVENUE,Manhattan,10032,1021150036,1062715,MN-12,14,241,MN36,40.832655,-73.9422,40.83277,-73.942507,,New Construction,No,Non Prevailing Wage,0,0,0,0,5,0,2,0,3,0,0,0,0,0,5,0,5,14
73691,1818 PROSPECT AVENUE APARTMENTS,3/14/23,,104361,1818,PROSPECT AVENUE,1818 PROSPECT AVENUE,Bronx,10457,2029530006,2128688,BX-06,36,367,BX17,40.841944,-73.891232,40.84197,-73.890878,,New Construction,No,Non Prevailing Wage,0,0,0,0,44,0,0,22,13,9,0,0,0,0,44,0,44,44
73692,1412 COLLEGE AVENUE APARTMENTS,3/14/23,,57860,1412,COLLEGE AVENUE,1412 COLLEGE AVENUE,Bronx,10456,2027840003,2007236,BX-04,14,225,BX14,40.837827,-73.910393,40.83781,-73.910049,,New Construction,No,Non Prevailing Wage,0,0,0,0,5,0,2,3,0,0,0,0,0,0,5,0,5,16
70816,GODDARD. 235 W 107TH STREET. STEPHAN RUSSO RESIDENCE,3/10/23,,37677,235,WEST 107 STREET,235 WEST 107 STREET,Manhattan,10025,1018790015,1056651,MN-07,41,195,MN09,40.801811,-73.966846,40.80193,-73.966586,,Preservation,No,Non Prevailing Wage,54,0,14,0,0,1,68,1,0,0,0,0,0,0,69,0,69,69
71978,61 METROPOLITAN AVENUE,3/10/23,,1008317,61,METROPOLITAN AVENUE,61 METROPOLITAN AVENUE,Brooklyn,11249,3023570029,3335731,BK-01,11,555,BK73,40.717294,-73.964309,40.71748,-73.964142,,New Construction,No,Non Prevailing Wage,0,0,5,0,0,0,0,5,0,0,0,0,0,0,5,0,5,24
73693,94-50 45TH AVENUE,3/10/23,,433760,94-50,45 AVENUE,94-50 45 AVENUE,Queens,11373,4016020028,4000000,QN-04,45,463,QN29,40.744021,-73.870147,40.74421,-73.868905,,New Construction,No,Non Prevailing Wage,0,0,0,0,3,0,0,0,3,0,0,0,0,0,3,0,3,7
73694,1755 BROOKLYN AVENUE,3/10/23,,1008010,1755,BROOKLYN AVENUE,1755 BROOKLYN AVENUE,Brooklyn,11210,3075820013,3000000,BK-18,45,776,BK58,40.630278,-73.941561,40.63023,-73.941251,,New Construction,No,Non Prevailing Wage,0,0,0,0,4,0,1,1,2,0,0,0,0,0,4,0,4,9
73695,134-16 36 ROAD,3/10/23,,423434,134-20,36 ROAD,134-20 36 ROAD,Queens,11354,4049700025,4112223,QN-07,21,869,QN22,40.7614,-73.833542,40.76132,-73.833239,,New Construction,No,Non Prevailing Wage,0,0,0,0,8,0,1,5,2,0,0,0,0,0,8,0,8,26
72777,1 JAVA STREET,3/9/23,,991143,45,JAVA STREET,45 JAVA STREET,Brooklyn,11222,3025380001,3000000,BK-01,11,565,BK76,40.731123,-73.959773,40.73128,-73.961635,,New Construction,No,Non Prevailing Wage,0,0,67,0,132,0,52,115,32,0,0,0,0,0,199,0,199,834
69647,DONA ROSITA I.YR15.FY23,3/8/23,,63593,315,EAST 148 STREET,315 EAST 148 STREET,Bronx,10451,2023300059,2000907,BX-01,17,65,BX34,40.8163,-73.921517,40.81641,-73.921159,,Preservation,No,Non Prevailing Wage,39,1,0,0,0,0,40,0,0,0,0,0,0,0,40,0,40,40
73696,36-10 31ST STREET,3/6/23,,418155,36-10,31 STREET,36-10 31 STREET,Queens,11106,4005990035,4007869,QN-01,26,51,QN68,40.756229,-73.930052,40.75634,-73.930365,,New Construction,No,Non Prevailing Wage,0,0,0,0,13,0,3,9,1,0,0,0,0,0,13,0,13,41
73697,3436 KINGSBRIDGE AVE APARTMENTS,3/2/23,,89750,3436,KINGSBRIDGE AVENUE,3436 KINGSBRIDGE AVENUE,Bronx,10463,2057600123,2083687,BX-08,11,287,BX29,40.882783,-73.903645,40.88317,-73.902904,,New Construction,No,Non Prevailing Wage,0,0,0,0,12,0,3,3,6,0,0,0,0,0,12,0,12,39
73698,290 LINDEN BOULEVARD APARTMENTS,3/2/23,,1007968,290,LINDEN BOULEVARD,290 LINDEN BOULEVARD,Brooklyn,11226,3048680031,3000000,BK-17,40,818,BK95,40.652709,-73.948392,40.65238,-73.948353,,New Construction,No,Non Prevailing Wage,0,0,0,0,10,0,5,5,0,0,0,0,0,0,10,0,10,33
73699,26-19 2ND STREET,3/2/23,,969667,26-19,2 STREET,26-19 2 STREET,Queens,11102,4009140008,4020682,QN-01,22,87,QN71,40.776365,-73.934728,40.7761,-73.934519,,New Construction,No,Non Prevailing Wage,0,0,0,0,8,0,0,7,1,0,0,0,0,0,8,0,8,25
65254,CB WHCO PORTFOLIO.YR15.FY23,2/28/23,,28070,202,ST NICHOLAS AVENUE,202 ST NICHOLAS AVENUE,Manhattan,10027,1019260008,1058463,MN-10,9,220,MN11,40.8069,-73.952857,40.80679,-73.952568,,Preservation,No,Non Prevailing Wage,6,4,0,0,0,0,0,5,5,0,0,0,0,0,10,0,10,10
65254,CB WHCO PORTFOLIO.YR15.FY23,2/28/23,,28073,208,ST NICHOLAS AVENUE,208 ST NICHOLAS AVENUE,Manhattan,10027,1019260061,1058485,MN-10,9,220,MN11,40.807095,-73.952867,40.80719,-73.952636,,Preservation,No,Non Prevailing Wage,5,12,0,0,0,0,0,0,17,0,0,0,0,0,17,0,17,17
65254,CB WHCO PORTFOLIO.YR15.FY23,2/28/23,,38110,102,WEST 114 STREET,102 WEST 114 STREET,Manhattan,10026,1018230037,1055020,MN-10,9,216,MN11,40.800872,-73.951019,40.80074,-73.951279,,Preservation,No,Non Prevailing Wage,0,5,0,0,0,0,0,0,0,5,0,0,0,0,5,0,5,5
65254,CB WHCO PORTFOLIO.YR15.FY23,2/28/23,,38111,104,WEST 114 STREET,104 WEST 114 STREET,Manhattan,10026,1018230038,1055021,MN-10,9,216,MN11,40.800911,-73.951113,40.80077,-73.951358,,Preservation,No,Non Prevailing Wage,3,6,1,0,0,1,1,1,9,0,0,0,0,0,11,0,11,11
65254,CB WHCO PORTFOLIO.YR15.FY23,2/28/23,,38303,83,WEST 115 STREET,83 WEST 115 STREET,Manhattan,10026,1015990001,1051413,MN-10,9,190,MN11,40.801174,-73.949794,40.80131,-73.949689,,Preservation,No,Non Prevailing Wage,3,15,2,0,0,0,1,0,16,3,0,0,0,0,20,0,20,20
65254,CB WHCO PORTFOLIO.YR15.FY23,2/28/23,,38681,157,WEST 119 STREET,157 WEST 119 STREET,Manhattan,10026,1019040006,1057534,MN-10,9,220,MN11,40.804618,-73.949817,40.80509,-73.950387,,Preservation,No,Non Prevailing Wage,10,5,0,0,0,0,1,14,0,0,0,0,0,0,15,0,15,15
73700,1760 GRAND AVENUE,2/28/23,,996766,1760,GRAND AVENUE,1760 GRAND AVENUE,Bronx,10453,2028670123,2008515,BX-05,14,217,BX36,40.849456,-73.913345,40.84985,-73.912701,,New Construction,No,Non Prevailing Wage,0,0,0,0,5,0,1,1,3,0,0,0,0,0,5,0,5,15
73701,1502 46 STREET,2/23/23,,998086,1506,46 STREET,1506 46 STREET,Brooklyn,11219,3054360009,3128573,BK-12,44,234,BK88,40.633786,-73.985549,40.63377,-73.985834,,New Construction,No,Non Prevailing Wage,0,0,0,0,5,0,0,0,2,3,0,0,0,0,5,0,5,16
73702,97 VARET STREET APARTMENT,2/23/23,,386512,97,VARET STREET,97 VARET STREET,Brooklyn,11206,3031060031,3071524,BK-01,34,491,BK90,40.70316,-73.941504,40.70335,-73.941619,,New Construction,No,Non Prevailing Wage,0,0,0,0,3,0,0,0,3,0,0,0,0,0,3,0,3,10
73703,33-19 103RD STREET APARTMENTS,2/23/23,,991701,33-19,103 STREET,33-19 103 STREET,Queens,11368,4017180069,4042646,QN-03,21,379,QN26,40.757133,-73.865573,40.757,-73.865252,,New Construction,No,Non Prevailing Wage,0,0,0,0,2,0,0,1,0,1,0,0,0,0,2,0,2,6
73704,785 FAIRMOUNT PLACE APARTMENTS,2/22/23,,1007976,785,FAIRMOUNT PLACE,785 FAIRMOUNT PLACE,Bronx,10460,2029550048,2010052,BX-06,15,36502,BX17,40.842835,-73.88929,40.84285,-73.88886,,New Construction,No,Non Prevailing Wage,0,0,0,0,24,0,17,5,2,0,0,0,0,0,24,0,24,25
73705,282 EAST 32ND STREET APARTMENTS,2/22/23,,991560,282,EAST 32 STREET,282 EAST 32 STREET,Brooklyn,11226,3049310031,3110728,BK-17,45,826,BK95,40.64381,-73.946914,40.64376,-73.947181,,New Construction,No,Non Prevailing Wage,0,0,0,0,5,0,0,5,0,0,0,0,0,0,5,0,5,14
73706,1526 SEDGWICK AVENUE APARTMENTS,2/22/23,,1004926,1526,SEDGWICK AVENUE,1526 SEDGWICK AVENUE,Bronx,10453,2028800027,2009172,BX-05,16,20501,BX36,40.84684,-73.9249,40.84736,-73.924227,,New Construction,No,Non Prevailing Wage,0,0,0,0,12,0,0,7,5,0,0,0,0,0,12,0,12,39
73707,1001 BUSHWICK AVENUE,2/22/23,,215610,1001,BUSHWICK AVENUE,1001 BUSHWICK AVENUE,Brooklyn,11221,3033220001,3000000,BK-04,34,399,BK78,40.691761,-73.922099,40.6919,-73.921854,,New Construction,No,Non Prevailing Wage,0,0,0,0,11,0,0,5,6,0,0,0,0,0,11,0,11,34
73708,157 WEST KINGSBRIDGE ROAD,2/21/23,,1007815,157,WEST KINGSBRIDGE ROAD,157 WEST KINGSBRIDGE ROAD,Bronx,10463,2032530008,2000000,BX-08,14,273,BX28,40.87013,-73.904192,40.87013,-73.903787,,New Construction,No,Non Prevailing Wage,0,0,0,0,19,0,0,14,5,0,0,0,0,0,19,0,19,20
72364,MANHATTAN - 4778 BROADWAY_MIH72087,2/17/23,,1002898,4778,BROADWAY,4778 BROADWAY,Manhattan,10034,1022330010,1000000,MN-12,10,291,MN01,40.865818,-73.926444,40.86557,-73.926039,,New Construction,No,Non Prevailing Wage,0,8,11,2,0,0,5,9,7,0,0,0,0,0,21,0,21,80
73709,3510 WHITE PLAINS ROAD,2/16/23,,123281,3510,WHITE PLAINS ROAD,3510 WHITE PLAINS ROAD,Bronx,10467,2046570020,2057677,BX-12,12,380,BX44,40.87775,-73.866262,40.87767,-73.865684,,New Construction,No,Non Prevailing Wage,0,0,0,0,23,0,17,6,0,0,0,0,0,0,23,0,23,23
73710,69-03/69-05 DITMARS BOULEVARD,2/15/23,,982250,69-05,DITMARS BOULEVARD,69-05 DITMARS BOULEVARD,Queens,11370,4009660001,4000000,QN-01,22,317,QN72,40.768245,-73.899512,40.76838,-73.899147,,New Construction,No,Non Prevailing Wage,0,0,0,0,5,0,0,0,5,0,0,0,0,0,5,0,5,15
71444,44-01 NORTHERN BOULEVARD,2/14/23,,1008551,44-01,NORTHERN BOULEVARD,44-01 NORTHERN BOULEVARD,Queens,11101,4007040001,4436927,QN-01,26,159,QN70,40.753677,-73.918732,40.75409,-73.918237,,New Construction,No,Non Prevailing Wage,0,37,34,16,0,0,0,56,31,0,0,0,0,0,87,0,87,354
71734,566-568 GRAND STREET,2/14/23,,1007910,566-568,GRAND STREET,566-568 GRAND STREET,Brooklyn,11211,3027850027,3000000,BK-01,34,513,BK73,40.711116,-73.949361,40.71092,-73.949188,,New Construction,No,Non Prevailing Wage,0,0,4,0,0,0,1,0,0,3,0,0,0,0,4,0,4,22
73711,40-43 68TH STREET APARTMENTS,2/13/23,,1006501,40-43,68 STREET,40-43 68 STREET,Queens,11377,4013000006,4000000,QN-02,26,263,QN63,40.745492,-73.89707,40.74498,-73.89671,,New Construction,No,Non Prevailing Wage,0,0,0,0,3,0,0,1,2,0,0,0,0,0,3,0,3,10
73712,36-26 172ND STREET APARTMENTS,2/13/23,,1003696,36-26,172 STREET,36-26 172 STREET,Queens,11358,4053020115,4119922,QN-07,19,1175,QN51,40.762772,-73.794235,40.76228,-73.794579,,New Construction,No,Non Prevailing Wage,0,0,0,0,2,0,0,0,2,0,0,0,0,0,2,0,2,6
73713,139 15TH STREET APARTMENTS,2/13/23,,1008706,139,15 STREET,139 15 STREET,Brooklyn,11215,3010400051,3000000,BK-06,38,117,BK37,40.667032,-73.992329,40.66713,-73.992052,,New Construction,No,Non Prevailing Wage,0,0,0,0,3,0,0,3,0,0,0,0,0,0,3,0,3,8
73714,132-53 41ST AVENUE APARTMENTS,2/13/23,,992554,132-53,41 AVENUE,132-53 41 AVENUE,Queens,11355,4050370089,4602879,QN-07,20,871,QN22,40.757231,-73.831658,40.75731,-73.832022,,New Construction,No,Non Prevailing Wage,0,0,0,0,5,0,0,4,0,1,0,0,0,0,5,0,5,14
73715,104-18 NORTHERN BLVD APARTMENTS,2/13/23,,684504,104-18,NORTHERN BOULEVARD,104-18 NORTHERN BOULEVARD,Queens,11368,4017190008,4042655,QN-03,21,379,QN26,40.757694,-73.864367,40.75744,-73.863934,,New Construction,No,Non Prevailing Wage,0,0,0,0,3,0,0,2,1,0,0,0,0,0,3,0,3,7
73716,83-15 PARSONS BOULEVARD APARTMENTS,2/10/23,,687552,83-15,PARSONS BOULEVARD,83-15 PARSONS BOULEVARD,Queens,11432,4068620331,4000000,QN-08,24,450,QN35,40.715355,-73.807692,40.71524,-73.807314,,New Construction,No,Non Prevailing Wage,0,0,0,0,10,0,2,3,5,0,0,0,0,0,10,0,10,33
73717,3823 CARPENTER AVENUE APARTMENTS,2/10/23,,1007911,3823,CARPENTER AVENUE,3823 CARPENTER AVENUE,Bronx,10467,2046530090,2000000,BX-12,12,394,BX44,40.885302,-73.865231,40.88528,-73.865531,,New Construction,No,Non Prevailing Wage,0,0,0,0,4,0,3,1,0,0,0,0,0,0,4,0,4,13
73718,2761 BRONXWOOD AVENUE,2/10/23,,995696,2761,BRONXWOOD AVENUE,2761 BRONXWOOD AVENUE,Bronx,10469,2045140030,2000000,BX-11,13,340,BX07,40.866695,-73.861537,40.86758,-73.861861,,New Construction,No,Non Prevailing Wage,0,0,0,0,31,0,3,25,3,0,0,0,0,0,31,0,31,32
73719,584 4TH AVE,2/8/23,,129340,584,4 AVENUE,584 4 AVENUE,Brooklyn,11215,3010510039,3024085,BK-07,39,117,BK37,40.665827,-73.992513,40.66584,-73.992939,,New Construction,No,Non Prevailing Wage,0,0,0,0,14,0,1,10,3,0,0,0,0,0,14,0,14,46
73721,3128 BAILY AVE,2/8/23,,46537,3128,BAILEY AVENUE,3128 BAILEY AVENUE,Bronx,10463,2032610033,2015928,BX-08,14,277,BX28,40.878695,-73.901847,40.87846,-73.901666,,New Construction,No,Non Prevailing Wage,0,0,0,0,40,0,0,20,20,0,0,0,0,0,40,0,40,40
73722,26-24 4TH STREET,2/8/23,,399271,26-24,4 STREET,26-24 4 STREET,Queens,11102,4009100009,4000000,QN-01,22,87,QN71,40.775699,-73.932873,40.77558,-73.933465,,New Construction,No,Non Prevailing Wage,0,0,0,0,30,0,6,19,5,0,0,0,0,0,30,0,30,99
73723,229 BEACH 14 STREET,2/8/23,,985962,229,BEACH 14 STREET,229 BEACH 14 STREET,Queens,11691,4156270036,4000000,QN-14,31,101001,QN15,40.596048,-73.748218,40.59613,-73.748546,,New Construction,No,Non Prevailing Wage,0,0,0,0,5,0,0,0,5,0,0,0,0,0,5,0,5,15
73724,194 BUFFALO AVE,2/8/23,,215356,194,BUFFALO AVENUE,194 BUFFALO AVENUE,Brooklyn,11213,3013680050,3000000,BK-08,36,347,BK61,40.672536,-73.925211,40.67256,-73.925493,,New Construction,No,Non Prevailing Wage,0,0,0,0,3,0,0,3,0,0,0,0,0,0,3,0,3,8
73725,1230 PROSPECT AVE,2/8/23,,104266,1230,PROSPECT AVENUE,1230 PROSPECT AVENUE,Bronx,10459,2026930022,2000000,BX-02,17,131,BX33,40.82699,-73.898566,40.8274,-73.898107,,New Construction,No,Non Prevailing Wage,0,0,0,0,6,0,2,3,1,0,0,0,0,0,6,0,6,17
73726,1015 ATLANTIC AVE,2/8/23,,185555,1013,ATLANTIC AVENUE,1013 ATLANTIC AVENUE,Brooklyn,11238,3020190051,3000000,BK-02,36,227,BK69,40.67998,-73.958967,40.68019,-73.958542,,New Construction,No,Non Prevailing Wage,0,0,0,0,12,0,4,4,4,0,0,0,0,0,12,0,12,38
73727,24-28 BARTLETT STREET APARTMENTS,2/6/23,,199153,24,BARTLETT STREET,24 BARTLETT STREET,Brooklyn,11206,3022720006,3000000,BK-01,33,507,BK75,40.700805,-73.946945,40.7006,-73.94684,,New Construction,No,Non Prevailing Wage,0,0,0,0,4,0,0,0,0,4,0,0,0,0,4,0,4,12
73728,762 MADISON STREET APARTMENTS,2/2/23,,1007570,762,MADISON STREET,762 MADISON STREET,Brooklyn,11221,3016470044,3337993,BK-03,36,385,BK35,40.687351,-73.927657,40.68721,-73.92725,,New Construction,No,Non Prevailing Wage,0,0,0,0,3,0,3,0,0,0,0,0,0,0,3,0,3,10
73729,1484 WATSON AVENUE APARTMENTS,2/2/23,,120148,1484,WATSON AVENUE,1484 WATSON AVENUE,Bronx,10472,2037120037,2023393,BX-09,17,5001,BX55,40.825811,-73.880141,40.82553,-73.879895,,New Construction,No,Non Prevailing Wage,0,0,0,0,102,0,16,30,56,0,0,0,0,0,102,0,102,102
70562,253 MOTHER GASTON_MIH70552,2/1/23,,996963,253,MOTHER GASTON BOULEVARD,253 MOTHER GASTON BOULEVARD,Brooklyn,11212,3036750005,3083402,BK-16,37,908,BK81,40.673201,-73.90777,40.67318,-73.907413,,New Construction,No,Non Prevailing Wage,0,2,2,1,0,0,1,2,2,0,0,0,0,0,5,0,5,19
73730,SUNROSE TOWER,2/1/23,,42644,614,WEST 153 STREET,614 WEST 153 STREET,Manhattan,10031,1020990040,1062471,MN-09,7,237,MN04,40.831784,-73.947545,40.83164,-73.947769,,New Construction,No,Non Prevailing Wage,0,0,0,0,72,0,18,18,36,0,0,0,0,0,72,0,72,238
73731,85 & 87 HERKIMER STREET,1/31/23,,1008549,87,HERKIMER STREET,87 HERKIMER STREET,Brooklyn,11216,3018600064,3323683,BK-03,36,247,BK61,40.679705,-73.950679,40.6799,-73.950365,,New Construction,No,Non Prevailing Wage,0,0,0,0,2,0,0,1,1,0,0,0,0,0,2,0,2,6
73731,85 & 87 HERKIMER STREET,1/31/23,,1008550,85,HERKIMER STREET,85 HERKIMER STREET,Brooklyn,11216,3018600066,3323684,BK-03,36,247,BK61,40.679705,-73.950726,40.67987,-73.950412,,New Construction,No,Non Prevailing Wage,0,0,0,0,2,0,0,1,1,0,0,0,0,0,2,0,2,6
73732,1554 AND 1556 NEW YORK AVE,1/31/23,,1007557,1556,NEW YORK AVENUE,1556 NEW YORK AVENUE,Brooklyn,11210,3050070068,3000000,BK-17,45,786,BK42,40.634951,-73.944972,40.63483,-73.945271,,New Construction,No,Non Prevailing Wage,0,0,0,0,3,0,1,2,0,0,0,0,0,0,3,0,3,9
73732,1554 AND 1556 NEW YORK AVE,1/31/23,,1007631,1554,NEW YORK AVENUE,1554 NEW YORK AVENUE,Brooklyn,11210,,,BK-17,45,786,BK42,40.634987,-73.944976,,,,New Construction,No,Non Prevailing Wage,0,0,0,0,3,0,1,2,0,0,0,0,0,0,3,0,3,9
62191,NORTH COVE,1/27/23,,975739,3875,9 AVENUE,3875 9 AVENUE,Manhattan,10034,1021880001,1089192,MN-12,10,299,MN01,40.864022,-73.916807,40.86377,-73.916077,,New Construction,No,Non Prevailing Wage,155,122,152,180,0,2,152,273,186,0,0,0,0,0,611,0,611,611
71747,2767 ATLANTIC AVE_MIH71508,1/25/23,,999867,2767,ATLANTIC AVENUE,2767 ATLANTIC AVENUE,Brooklyn,11207,3039460045,3389513,BK-05,37,1198,BK82,40.676599,-73.892108,40.67653,-73.892064,,New Construction,No,Non Prevailing Wage,0,5,5,0,0,0,2,3,5,0,0,0,0,0,10,0,10,41
71748,BROOKLYN - 2777 ATLANTIC AVE_MIH71620,1/25/23,,1000076,2777,ATLANTIC AVENUE,2777 ATLANTIC AVENUE,Brooklyn,11207,3039460042,3087764,BK-05,37,1198,BK82,40.67636,-73.891747,40.67664,-73.891833,,New Construction,No,Non Prevailing Wage,0,6,8,0,0,0,2,12,0,0,0,0,0,0,14,0,14,63
73733,672 UNION AVENUE,1/20/23,,116459,672,UNION AVENUE,672 UNION AVENUE,Bronx,10455,2026750006,2000000,BX-01,17,79,BX34,40.815752,-73.904252,40.81569,-73.90397,,New Construction,No,Non Prevailing Wage,0,0,0,0,36,0,0,25,11,0,0,0,0,0,36,0,36,37
73734,596 METROPOLITAN AVENUE APARTMENTS,1/16/23,,1007834,596,METROPOLITAN AVENUE,596 METROPOLITAN AVENUE,Brooklyn,11211,3027620005,3322912,BK-01,34,503,BK90,40.714093,-73.94898,40.71384,-73.949001,,New Construction,No,Non Prevailing Wage,0,0,0,0,4,0,0,4,0,0,0,0,0,0,4,0,4,12
73735,31-22 60 STREET,1/16/23,,450784,31-24,60 STREET,31-24 60 STREET,Queens,11377,4011350148,4025304,QN-01,26,297,QN63,40.756972,-73.902709,40.75667,-73.902918,,New Construction,No,Non Prevailing Wage,0,0,0,0,2,0,0,2,0,0,0,0,0,0,2,0,2,6
73736,2441 CROTONA AVENUE APARTMENTS,1/16/23,,59963,2441,CROTONA AVENUE,2441 CROTONA AVENUE,Bronx,10458,2031050041,2000000,BX-06,15,389,BX06,40.855034,-73.883074,40.85546,-73.883275,,New Construction,No,Non Prevailing Wage,0,0,0,0,17,0,3,12,1,1,0,0,0,0,17,0,17,50
73738,2427 CROTONA AVENUE,1/16/23,,59958,2427,CROTONA AVENUE,2427 CROTONA AVENUE,Bronx,10458,2031050047,2012919,BX-06,15,389,BX06,40.854757,-73.883215,40.85492,-73.883414,,New Construction,No,Non Prevailing Wage,0,0,0,0,6,0,0,6,0,0,0,0,0,0,6,0,6,17
73737,1777 WEEKS AVENUE,1/13/23,,120826,1777,WEEKS AVENUE,1777 WEEKS AVENUE,Bronx,10457,2027960037,2000000,BX-05,15,22901,BX41,40.846207,-73.90745,40.84626,-73.907714,,New Construction,No,Non Prevailing Wage,0,0,0,0,14,0,6,8,0,0,0,0,0,0,14,0,14,45
73739,2140 MATTHEWS AVENUE,1/10/23,,94891,2140,MATTHEWS AVENUE,2140 MATTHEWS AVENUE,Bronx,10462,2043230014,2049446,BX-11,13,228,BX49,40.855152,-73.862899,40.8551,-73.862624,,New Construction,No,Non Prevailing Wage,0,0,0,0,14,0,0,14,0,0,0,0,0,0,14,0,14,16
73740,1677 TOWNSEND AVENUE,1/10/23,,1007186,1677,TOWNSEND AVENUE,1677 TOWNSEND AVENUE,Bronx,10453,2028480024,2000000,BX-05,14,22701,BX41,40.845986,-73.912438,40.84593,-73.912778,,New Construction,No,Non Prevailing Wage,0,0,0,0,34,0,13,1,14,6,0,0,0,0,34,0,34,35
73741,69 AMBOY STREET,1/9/23,,1008057,69,AMBOY STREET,69 AMBOY STREET,Brooklyn,11212,,,BK-16,41,902,BK81,40.668507,-73.91434,,,,New Construction,No,Non Prevailing Wage,0,0,0,0,8,0,2,6,0,0,0,0,0,0,8,0,8,9
73742,4829-4831 WHITE PLAINS ROAD,1/9/23,,1006597,4829,WHITE PLAINS ROAD,4829 WHITE PLAINS ROAD,Bronx,10470,,,BX-12,11,414,BX62,40.906595,-73.848829,,,,New Construction,No,Non Prevailing Wage,0,0,0,0,3,0,0,3,0,0,0,0,0,0,3,0,3,10
73742,4829-4831 WHITE PLAINS ROAD,1/9/23,,1006649,4831,WHITE PLAINS ROAD,4831 WHITE PLAINS ROAD,Bronx,10470,2051100001,2071813,BX-12,11,414,BX62,40.90663,-73.8488,40.90683,-73.848976,,New Construction,No,Non Prevailing Wage,0,0,0,0,3,0,0,3,0,0,0,0,0,0,3,0,3,10
73743,870 METROPOLITAN AVENUE APARTMENTS,1/6/23,,336677,870,METROPOLITAN AVENUE,870 METROPOLITAN AVENUE,Brooklyn,11211,3029160029,3338322,BK-01,34,481,BK90,40.714638,-73.939936,40.71441,-73.939936,,New Construction,No,Non Prevailing Wage,0,0,0,0,7,0,1,3,3,0,0,0,0,0,7,0,7,22
73744,113 E 184TH STREET,1/6/23,,66573,113,EAST 184 STREET,113 EAST 184 STREET,Bronx,10468,2031730068,2000000,BX-05,14,23703,BX40,40.859823,-73.900313,40.86002,-73.900186,,New Construction,No,Non Prevailing Wage,0,0,0,0,16,0,8,8,0,0,0,0,0,0,16,0,16,51
73745,THE BROOKLYN TOWER,1/5/23,,976489,9,DEKALB AVENUE,9 DEKALB AVENUE,Brooklyn,11201,3001490100,3000370,BK-02,33,15,BK38,40.689985,-73.98254,40.6904,-73.982392,,New Construction,No,Non Prevailing Wage,0,0,0,0,120,0,57,44,18,1,0,0,0,0,120,0,120,398
73751,11 LEWIS AVENUE,1/4/23,,324753,11,LEWIS AVENUE,11 LEWIS AVENUE,Brooklyn,11206,3015820002,3042856,BK-03,36,287,BK35,40.697617,-73.937982,40.69766,-73.937683,,New Construction,No,Non Prevailing Wage,0,0,0,0,4,0,4,0,0,0,0,0,0,0,4,0,4,13
73753,3327 WHITE PLAINS ROAD,1/3/23,,123251,3327,WHITE PLAINS ROAD,3327 WHITE PLAINS ROAD,Bronx,10467,2046240049,2000000,BX-12,12,374,BX44,40.874054,-73.867083,40.87404,-73.867449,,New Construction,No,Non Prevailing Wage,0,0,0,0,7,0,1,3,3,0,0,0,0,0,7,0,7,22
73326,2316 CLARENDON ROAD,12/30/22,,220777,2316,CLARENDON ROAD,2316 CLARENDON ROAD,Brooklyn,11226,3051890007,3119670,BK-14,45,790,BK95,40.642836,-73.955239,40.6426,-73.954857,,New Construction,No,Non Prevailing Wage,0,0,0,0,5,0,0,2,3,0,0,0,0,0,5,0,5,15
73325,61 CLARKSON AVE,12/29/22,,221432,61,CLARKSON AVENUE,61 CLARKSON AVENUE,Brooklyn,11226,3050550081,3115979,BK-09,40,79601,BK60,40.654966,-73.95779,40.65517,-73.957775,,New Construction,No,Non Prevailing Wage,0,0,0,0,4,0,0,4,0,0,0,0,0,0,4,0,4,11
73754,1462 FLATBUSH AVENUE APARTMENTS,12/29/22,,1007083,1462,FLATBUSH AVENUE,1462 FLATBUSH AVENUE,Brooklyn,11210,3052490059,3000000,BK-14,45,770,BK42,40.63522,-73.950214,40.63497,-73.950391,,New Construction,No,Non Prevailing Wage,0,0,0,0,14,0,0,12,0,2,0,0,0,0,14,0,14,45
66225,MORNINGSIDE CLUSTER,12/28/22,,25246,384,MANHATTAN AVENUE,384 MANHATTAN AVENUE,Manhattan,10026,1019430018,1059012,MN-10,9,20102,MN11,40.805197,-73.956687,40.80507,-73.956463,,Preservation,No,Non Prevailing Wage,0,0,0,9,0,0,0,0,1,8,0,0,0,0,0,9,9,9
66225,MORNINGSIDE CLUSTER,12/28/22,,25300,494,MANHATTAN AVENUE,494 MANHATTAN AVENUE,Manhattan,10027,1019470118,1059167,MN-10,9,257,MN11,40.807947,-73.95468,40.80771,-73.954561,,Preservation,No,Non Prevailing Wage,0,0,0,9,0,0,0,9,0,0,0,0,0,0,0,9,9,9
66225,MORNINGSIDE CLUSTER,12/28/22,,38272,357,WEST 115 STREET,357 WEST 115 STREET,Manhattan,10026,1018490027,1055870,MN-10,9,20102,MN11,40.804481,-73.957623,40.80476,-73.957702,,Preservation,No,Non Prevailing Wage,0,0,0,18,0,0,0,0,8,10,0,0,0,0,0,18,18,18
73324,659 EAST 222 STREET,12/28/22,,1007124,659,EAST 222 STREET,659 EAST 222 STREET,Bronx,10467,2048240025,2000000,BX-12,12,394,BX44,40.886192,-73.863179,40.88638,-73.8629,,New Construction,No,Non Prevailing Wage,0,0,0,0,3,0,1,2,0,0,0,0,0,0,3,0,3,10
73323,130 HOPE STREET,12/27/22,,983645,130,HOPE STREET,130 HOPE STREET,Brooklyn,11211,3023860007,3000000,BK-01,34,513,BK73,40.712207,-73.953118,40.71201,-73.95327,,New Construction,No,Non Prevailing Wage,0,0,0,0,43,0,8,22,10,3,0,0,0,0,43,0,43,143
73755,3301 NEWKIRK AVE _HPS,12/27/22,,343520,1335,NEW YORK AVENUE,1335 NEW YORK AVENUE,Brooklyn,11203,3049670025,3112375,BK-17,45,830,BK91,40.640513,-73.945551,40.64031,-73.945249,,New Construction,No,Non Prevailing Wage,0,0,0,0,3,0,0,3,0,0,0,0,0,0,3,0,3,9
71471,HP BRIARWOOD HDFC.HPO.FY23,12/23/22,12/23/22,548350,80-08,135 STREET,80-08 135 STREET,Queens,11435,4096630002,4206529,QN-08,24,22001,QN35,40.715852,-73.823523,40.71546,-73.823838,12/23/22,Preservation,Yes,Non Prevailing Wage,0,22,88,79,3,0,22,100,69,1,0,0,0,0,192,0,192,192
71471,HP BRIARWOOD HDFC.HPO.FY23,12/23/22,12/23/22,548357,81-09,134 STREET,81-09 134 STREET,Queens,11435,4096630020,4206530,QN-08,24,22001,QN35,40.714379,-73.823884,40.71469,-73.823555,12/23/22,Preservation,Yes,Non Prevailing Wage,1,18,89,78,4,0,22,100,68,0,0,0,0,0,190,0,190,190
71703,FINCH GROUP. 4746-4750 WHITE PLAINS RD. WAKEFIELD SENIORS,12/23/22,,1004586,4746-4750,WHITE PLAINS ROAD,4746-4750 WHITE PLAINS ROAD,Bronx,10470,2051130029,2071869,BX-12,11,442,BX62,40.904732,-73.849654,40.90465,-73.849354,,New Construction,No,Prevailing Wage,72,0,0,0,0,1,71,1,1,0,0,0,0,0,73,0,73,73
72746,BORINQUEN COURT ASSOCIATES LP.HUDMF.FY23,12/23/22,12/23/22,62749,285,EAST 138 STREET,285 EAST 138 STREET,Bronx,10454,2023140010,2000689,BX-01,8,39,BX39,40.810666,-73.926487,40.81088,-73.925952,12/23/22,Preservation,No,Non Prevailing Wage,139,5,0,0,0,1,0,122,23,0,0,0,0,0,145,0,145,145
64415,SPRING CREEK PHASE 4C,12/22/22,,991851,429,VANDALIA AVENUE,429 VANDALIA AVENUE,Brooklyn,11239,,,BK-305,42,1070,BK82,40.654655,-73.875813,,,,New Construction,No,Non Prevailing Wage,0,0,8,0,0,0,0,0,1,7,0,0,0,0,8,0,8,8
64415,SPRING CREEK PHASE 4C,12/22/22,,991858,71,GATEWAY DRIVE,71 GATEWAY DRIVE,Brooklyn,11239,3044520237,3000000,BK-305,42,1070,BK82,40.654357,-73.877778,40.65445,-73.877551,,New Construction,No,Non Prevailing Wage,0,0,8,0,0,0,0,0,1,7,0,0,0,0,8,0,8,8
64415,SPRING CREEK PHASE 4C,12/22/22,,991859,77,GATEWAY DRIVE,77 GATEWAY DRIVE,Brooklyn,11239,3044520236,3000000,BK-305,42,1070,BK82,40.654305,-73.877785,40.65434,-73.877533,,New Construction,No,Non Prevailing Wage,6,2,0,0,0,0,0,1,7,0,0,0,0,0,8,0,8,8
64415,SPRING CREEK PHASE 4C,12/22/22,,991860,79,GATEWAY DRIVE,79 GATEWAY DRIVE,Brooklyn,11239,3044520234,3000000,BK-305,42,1070,BK82,40.654286,-73.877785,40.65425,-73.877537,,New Construction,No,Non Prevailing Wage,0,8,0,0,0,0,0,1,7,0,0,0,0,0,8,0,8,8
64415,SPRING CREEK PHASE 4C,12/22/22,,991861,81,GATEWAY DRIVE,81 GATEWAY DRIVE,Brooklyn,11239,3044520233,3000000,BK-305,42,1070,BK82,40.65427,-73.877785,40.65416,-73.877544,,New Construction,No,Non Prevailing Wage,5,3,0,0,0,0,0,1,7,0,0,0,0,0,8,0,8,8
64415,SPRING CREEK PHASE 4C,12/22/22,,991862,83,GATEWAY DRIVE,83 GATEWAY DRIVE,Brooklyn,11239,3044520232,3000000,BK-305,42,1070,BK82,40.65425,-73.877789,40.65407,-73.877497,,New Construction,No,Non Prevailing Wage,0,0,8,0,0,0,0,1,7,0,0,0,0,0,8,0,8,8
64415,SPRING CREEK PHASE 4C,12/22/22,,991863,85,GATEWAY DRIVE,85 GATEWAY DRIVE,Brooklyn,11239,3044520231,3000000,BK-305,42,1070,BK82,40.654231,-73.877789,40.65395,-73.877487,,New Construction,No,Non Prevailing Wage,4,4,0,0,0,0,0,1,7,0,0,0,0,0,8,0,8,8
64415,SPRING CREEK PHASE 4C,12/22/22,,991864,87,GATEWAY DRIVE,87 GATEWAY DRIVE,Brooklyn,11239,3044520230,3000000,BK-305,42,1070,BK82,40.654215,-73.877789,40.65384,-73.877465,,New Construction,No,Non Prevailing Wage,0,0,8,0,0,0,1,1,6,0,0,0,0,0,8,0,8,8
64415,SPRING CREEK PHASE 4C,12/22/22,,991865,89,GATEWAY DRIVE,89 GATEWAY DRIVE,Brooklyn,11239,3044520229,3000000,BK-305,42,1070,BK82,40.654196,-73.877789,40.65375,-73.87744,,New Construction,No,Non Prevailing Wage,3,5,0,0,0,0,0,1,7,0,0,0,0,0,8,0,8,8
64415,SPRING CREEK PHASE 4C,12/22/22,,991866,91,GATEWAY DRIVE,91 GATEWAY DRIVE,Brooklyn,11239,3044520228,3000000,BK-305,42,1070,BK82,40.654179,-73.877789,40.65366,-73.877404,,New Construction,No,Non Prevailing Wage,0,0,8,0,0,0,0,1,7,0,0,0,0,0,8,0,8,8
64415,SPRING CREEK PHASE 4C,12/22/22,,991867,93,GATEWAY DRIVE,93 GATEWAY DRIVE,Brooklyn,11239,3044520227,3000000,BK-305,42,1070,BK82,40.65416,-73.877789,40.65358,-73.877369,,New Construction,No,Non Prevailing Wage,6,2,0,0,0,0,0,1,7,0,0,0,0,0,8,0,8,8
64415,SPRING CREEK PHASE 4C,12/22/22,,991868,95,GATEWAY DRIVE,95 GATEWAY DRIVE,Brooklyn,11239,3044520226,3000000,BK-305,42,1070,BK82,40.654143,-73.877789,40.65349,-73.877326,,New Construction,No,Non Prevailing Wage,0,0,8,0,0,0,0,1,7,0,0,0,0,0,8,0,8,8
64415,SPRING CREEK PHASE 4C,12/22/22,,991869,406,VANDALIA AVENUE,406 VANDALIA AVENUE,Brooklyn,11239,3044520204,3000000,BK-305,42,1070,BK82,40.65456,-73.877097,40.65432,-73.87731,,New Construction,No,Non Prevailing Wage,0,0,8,0,0,0,1,1,6,0,0,0,0,0,8,0,8,8
64415,SPRING CREEK PHASE 4C,12/22/22,,991870,408,VANDALIA AVENUE,408 VANDALIA AVENUE,Brooklyn,11239,3044520205,3000000,BK-305,42,1070,BK82,40.654546,-73.876992,40.65431,-73.877187,,New Construction,No,Non Prevailing Wage,5,3,0,0,0,0,1,1,6,0,0,0,0,0,8,0,8,8
64415,SPRING CREEK PHASE 4C,12/22/22,,991872,410,VANDALIA AVENUE,410 VANDALIA AVENUE,Brooklyn,11239,3044520206,3000000,BK-305,42,1070,BK82,40.654538,-73.876884,40.65431,-73.877068,,New Construction,No,Non Prevailing Wage,0,0,8,0,0,0,0,1,7,0,0,0,0,0,8,0,8,8
64415,SPRING CREEK PHASE 4C,12/22/22,,991873,412,VANDALIA AVENUE,412 VANDALIA AVENUE,Brooklyn,11239,3044520207,3000000,BK-305,42,1070,BK82,40.654532,-73.876776,40.65431,-73.876935,,New Construction,No,Non Prevailing Wage,4,4,0,0,0,0,1,1,6,0,0,0,0,0,8,0,8,8
64415,SPRING CREEK PHASE 4C,12/22/22,,991874,414,VANDALIA AVENUE,414 VANDALIA AVENUE,Brooklyn,11239,3044520249,3000000,BK-305,42,1070,BK82,40.654526,-73.876642,40.65423,-73.876621,,New Construction,No,Non Prevailing Wage,0,0,8,0,0,0,1,1,6,0,0,0,0,0,8,0,8,8
64415,SPRING CREEK PHASE 4C,12/22/22,,991875,416,VANDALIA AVENUE,416 VANDALIA AVENUE,Brooklyn,11239,3044520250,3000000,BK-305,42,1070,BK82,40.654529,-73.87652,40.65427,-73.876488,,New Construction,No,Non Prevailing Wage,4,4,0,0,0,0,0,1,7,0,0,0,0,0,8,0,8,8
64415,SPRING CREEK PHASE 4C,12/22/22,,991876,418,VANDALIA AVENUE,418 VANDALIA AVENUE,Brooklyn,11239,3044520251,3000000,BK-305,42,1070,BK82,40.654534,-73.876397,40.65429,-73.876373,,New Construction,No,Non Prevailing Wage,0,0,8,0,0,0,0,1,7,0,0,0,0,0,8,0,8,8
64415,SPRING CREEK PHASE 4C,12/22/22,,991877,422,VANDALIA AVENUE,422 VANDALIA AVENUE,Brooklyn,11239,3044520252,3000000,BK-305,42,1070,BK82,40.654564,-73.876152,40.65433,-73.876225,,New Construction,No,Non Prevailing Wage,5,3,0,0,0,0,0,0,1,7,0,0,0,0,8,0,8,8
64415,SPRING CREEK PHASE 4C,12/22/22,,991879,433,VANDALIA AVENUE,433 VANDALIA AVENUE,Brooklyn,11239,,,BK-305,42,1070,BK82,40.654687,-73.875709,,,,New Construction,No,Non Prevailing Wage,0,8,0,0,0,0,0,1,7,0,0,0,0,0,8,0,8,8
64415,SPRING CREEK PHASE 4C,12/22/22,,991880,435,VANDALIA AVENUE,435 VANDALIA AVENUE,Brooklyn,11239,,,BK-305,42,1070,BK82,40.654704,-73.875655,,,,New Construction,No,Non Prevailing Wage,0,0,7,0,0,1,0,1,7,0,0,0,0,0,8,0,8,8
64415,SPRING CREEK PHASE 4C,12/22/22,,991881,437,VANDALIA AVENUE,437 VANDALIA AVENUE,Brooklyn,11239,,,BK-305,42,1070,BK82,40.654723,-73.875604,,,,New Construction,No,Non Prevailing Wage,4,4,0,0,0,0,0,1,7,0,0,0,0,0,8,0,8,8
64415,SPRING CREEK PHASE 4C,12/22/22,,991882,441,VANDALIA AVENUE,441 VANDALIA AVENUE,Brooklyn,11239,3044520170,3000000,BK-305,42,1070,BK82,40.654764,-73.875503,40.65694,-73.872133,,New Construction,No,Non Prevailing Wage,0,0,8,0,0,0,1,1,6,0,0,0,0,0,8,0,8,8
67005,IMPACCT BK. 776-780 MYRTLE AVE,12/22/22,,998808,778,MYRTLE AVENUE,778 MYRTLE AVENUE,Brooklyn,11206,3017540020,3000000,BK-03,36,253,BK75,40.695079,-73.95176,40.69489,-73.951291,,New Construction,No,Non Prevailing Wage,36,8,15,0,0,1,45,8,7,0,0,0,0,0,60,0,60,60
69182,664-672 BECK STREET HDFC.PLP.FY23,12/22/22,,49214,664,BECK STREET,664 BECK STREET,Bronx,10455,2026840054,2005093,BX-02,17,83,BX33,40.81466,-73.901595,40.81443,-73.901458,,Preservation,No,Non Prevailing Wage,40,1,0,0,0,1,1,26,10,5,0,0,0,0,42,0,42,42
69182,664-672 BECK STREET HDFC.PLP.FY23,12/22/22,,49215,672,BECK STREET,672 BECK STREET,Bronx,10455,2026840057,2005094,BX-02,17,83,BX33,40.814772,-73.901197,40.8145,-73.901183,,Preservation,No,Non Prevailing Wage,42,0,0,0,0,0,2,25,10,5,0,0,0,0,42,0,42,42
69325,TBX1002-MBD,12/22/22,,45452,970,ANDERSON AVENUE,970 ANDERSON AVENUE,Bronx,10452,2025040070,2003046,BX-04,8,189,BX26,40.831609,-73.927667,40.83159,-73.927269,,Preservation,No,Non Prevailing Wage,7,0,1,0,0,1,0,0,1,8,0,0,0,0,9,0,9,9
69325,TBX1002-MBD,12/22/22,,53581,1120,BRYANT AVENUE,1120 BRYANT AVENUE,Bronx,10459,2027540061,2006204,BX-03,17,12101,BX35,40.826953,-73.888854,40.827,-73.888727,,Preservation,No,Non Prevailing Wage,0,10,1,0,0,0,0,1,0,10,0,0,0,0,11,0,11,11
69325,TBX1002-MBD,12/22/22,,115154,1105,TINTON AVENUE,1105 TINTON AVENUE,Bronx,10456,2026610052,2004707,BX-03,16,135,BX35,40.826737,-73.901457,40.82667,-73.901747,,Preservation,No,Non Prevailing Wage,9,16,20,0,0,1,0,29,17,0,0,0,0,0,46,0,46,46
69325,TBX1002-MBD,12/22/22,,122751,1142,WHEELER AVENUE,1142 WHEELER AVENUE,Bronx,10472,2037390023,2023821,BX-09,17,5002,BX55,40.827081,-73.879766,40.82723,-73.87952,,Preservation,No,Non Prevailing Wage,0,3,1,0,0,0,0,1,3,0,0,0,0,0,4,0,4,4
70054,1305 MORRIS AVENUE HDFC.YR15.FY23,12/22/22,12/22/22,994213,1305,MORRIS AVENUE,1305 MORRIS AVENUE,Bronx,10456,2028160066,2114110,BX-04,16,17902,BX14,40.835976,-73.912517,40.83588,-73.912907,12/22/22,Preservation,Yes,Non Prevailing Wage,45,1,18,10,0,0,74,0,0,0,0,0,0,0,74,0,74,74
73322,187 20 STREET,12/22/22,,144990,187,20 STREET,187 20 STREET,Brooklyn,11232,3006370076,3388089,BK-07,38,143,BK37,40.662868,-73.994431,40.6631,-73.994363,,New Construction,No,Non Prevailing Wage,0,0,0,0,3,0,0,3,0,0,0,0,0,0,3,0,3,8
72944,723 MYRTLE AVENUE_MIH69425,12/21/22,,340962,733,MYRTLE AVENUE,733 MYRTLE AVENUE,Brooklyn,11205,3017360035,3000000,BK-03,33,1237,BK75,40.694885,-73.953549,40.69506,-73.953632,,New Construction,No,Non Prevailing Wage,0,12,12,6,0,0,0,24,6,0,0,0,0,0,30,0,30,120
63260,ENNIS FRANCIS III B1,12/20/22,,1006138,212,WEST 124 STREET,212 WEST 124 STREET,Manhattan,10027,1019290057,1000000,MN-10,9,222,MN11,40.808595,-73.949557,40.80867,-73.950316,,New Construction,No,Non Prevailing Wage,51,43,74,0,0,1,81,43,45,0,0,0,0,0,169,0,169,169
68462,BEACH GREEN DUNES 3,12/19/22,,1004802,35-01,BEACH CHANNEL DRIVE,35-01 BEACH CHANNEL DRIVE,Queens,11691,4158250007,4000000,QN-14,31,992,QN12,40.596262,-73.767871,40.59604,-73.768023,,New Construction,No,Non Prevailing Wage,37,43,65,0,0,1,36,70,37,3,0,0,0,0,146,0,146,146
73321,1757 BROOKLYN AVE,12/19/22,,1007125,1757,BROOKLYN AVENUE,1757 BROOKLYN AVENUE,Brooklyn,11210,,,BK-18,45,776,BK58,40.63024,-73.941557,,,,New Construction,No,Non Prevailing Wage,0,0,0,0,4,0,1,1,2,0,0,0,0,0,4,0,4,9
73334,KENT VILLAGE,12/19/22,,807980,111,CLYMER STREET,111 CLYMER STREET,Brooklyn,11249,3021660001,3343951,BK-01,33,545,BK72,40.705204,-73.965761,40.70625,-73.966222,,Preservation,No,Non Prevailing Wage,0,38,1,0,0,0,0,1,0,27,11,0,0,0,39,0,39,39
73334,KENT VILLAGE,12/19/22,,807981,115,CLYMER STREET,115 CLYMER STREET,Brooklyn,11249,3021660001,3343950,BK-01,33,545,BK72,40.705204,-73.965761,40.70625,-73.966222,,Preservation,No,Non Prevailing Wage,0,35,4,0,0,0,0,1,0,27,11,0,0,0,39,0,39,39
73334,KENT VILLAGE,12/19/22,,808094,50,DIVISION AVENUE,50 DIVISION AVENUE,Brooklyn,11249,3021660001,3323168,BK-01,33,545,BK72,40.707093,-73.966738,40.70625,-73.966222,,Preservation,No,Non Prevailing Wage,0,35,0,0,0,1,0,0,0,13,23,0,0,0,36,0,36,36
73334,KENT VILLAGE,12/19/22,,808095,60,DIVISION AVENUE,60 DIVISION AVENUE,Brooklyn,11249,3021660001,3323169,BK-01,33,545,BK72,40.707169,-73.966309,40.70625,-73.966222,,Preservation,No,Non Prevailing Wage,0,177,15,0,0,0,0,49,96,47,0,0,0,0,192,0,192,192
73334,KENT VILLAGE,12/19/22,,808096,64,DIVISION AVENUE,64 DIVISION AVENUE,Brooklyn,11249,3021660001,3323170,BK-01,33,545,BK72,40.707199,-73.966135,40.70625,-73.966222,,Preservation,No,Non Prevailing Wage,0,33,2,0,0,1,0,0,0,13,23,0,0,0,36,0,36,36
73334,KENT VILLAGE,12/19/22,,809953,541,WYTHE AVENUE,541 WYTHE AVENUE,Brooklyn,11249,3021660001,3323171,BK-01,33,545,BK72,40.70561,-73.966749,40.70625,-73.966222,,Preservation,No,Non Prevailing Wage,0,180,12,0,0,0,0,49,96,47,0,0,0,0,192,0,192,192
71949,772 E 168TH STREET.YR15.FY23,12/16/22,12/16/22,878031,772,EAST 168 STREET,772 EAST 168 STREET,Bronx,10456,2026620019,2113382,BX-03,17,135,BX35,40.829231,-73.900753,40.82897,-73.900764,12/16/22,Preservation,Yes,Non Prevailing Wage,53,6,0,0,0,1,60,0,0,0,0,0,0,0,60,0,60,60
72160,RISEBORO SLATE. 326 ROCKAWAY AVE,12/16/22,,1004950,326,ROCKAWAY AVENUE,326 ROCKAWAY AVENUE,Brooklyn,11212,3034990025,3080756,BK-16,41,924,BK81,40.671905,-73.911308,40.67134,-73.911853,,New Construction,No,Non Prevailing Wage,130,51,34,0,0,1,90,74,41,11,0,0,0,0,216,0,216,216
73320,329-335 LINDEN BOULEVARD APARTMENTS,12/16/22,,327272,335,LINDEN BOULEVARD,335 LINDEN BOULEVARD,Brooklyn,11226,3048530075,3108073,BK-17,40,818,BK95,40.652783,-73.947311,40.65307,-73.947102,,New Construction,No,Non Prevailing Wage,0,0,0,0,13,0,0,6,7,0,0,0,0,0,13,0,13,41
62194,ATLANTIC CHESTNUT - LOT 2,12/15/22,,1006279,254,EUCLID AVENUE,254 EUCLID AVENUE,Brooklyn,11208,3041430001,3000000,BK-05,37,1178,BK83,40.682273,-73.873905,40.68254,-73.874618,,New Construction,No,Non Prevailing Wage,109,109,217,0,0,1,60,154,155,67,0,0,0,0,436,0,436,436
70189,SHERWOOD LLC.HUDMF.FY23,12/15/22,,445366,99-11,57 AVENUE,99-11 57 AVENUE,Queens,11368,4019090001,4431639,QN-04,21,44301,QN25,40.738453,-73.859834,40.73896,-73.859822,,Preservation,No,Non Prevailing Wage,58,5,2,3,0,1,6,24,31,7,1,0,0,0,69,0,69,69
70189,SHERWOOD LLC.HUDMF.FY23,12/15/22,,642307,60-15,CALLOWAY STREET,60-15 CALLOWAY STREET,Queens,11368,4019560029,4048141,QN-04,21,43702,QN25,40.737232,-73.855744,40.73731,-73.855336,,Preservation,No,Non Prevailing Wage,55,8,3,0,0,1,12,12,37,6,0,0,0,0,67,0,67,67
70189,SHERWOOD LLC.HUDMF.FY23,12/15/22,,951629,55-15,99 STREET,55-15 99 STREET,Queens,11368,4019090001,4431640,QN-04,21,44301,QN25,40.739025,-73.860399,40.73896,-73.859822,,Preservation,No,Non Prevailing Wage,58,6,4,1,0,0,7,24,32,6,0,0,0,0,69,0,69,69
71952,YORKVILLE GARDENS.HUDMF.FY23,12/15/22,,18423,225,EAST 93 STREET,225 EAST 93 STREET,Manhattan,10128,1015390010,1048917,MN-08,5,154,MN32,40.782781,-73.949577,40.78298,-73.949472,,Preservation,Yes,Non Prevailing Wage,128,2,1,0,0,1,32,99,1,0,0,0,0,0,132,0,132,132
72815,346 KENT AVENUE,12/15/22,,1006800,346,KENT AVENUE,346 KENT AVENUE,Brooklyn,11249,3024140027,3000000,BK-01,33,551,BK73,40.712805,-73.967651,40.7131,-73.967914,,New Construction,No,Non Prevailing Wage,0,0,0,0,91,0,23,40,25,3,0,0,0,0,91,0,91,399
68426,SEBCO. 1883 CROTONA AVE. CROTONA SENIOR HOUSING,12/14/22,,989997,1876,BELMONT AVENUE,1876 BELMONT AVENUE,Bronx,10457,2029460001,2086691,BX-06,17,36901,BX17,40.844581,-73.893053,40.84435,-73.892714,,New Construction,No,Prevailing Wage,133,0,0,0,0,1,70,63,1,0,0,0,0,0,134,0,134,134
69291,1700 HARRISON LLC.YR15.FY23,12/14/22,12/14/22,83648,1700,HARRISON AVENUE,1700 HARRISON AVENUE,Bronx,10453,2028670060,2008505,BX-05,14,21502,BX36,40.848969,-73.914813,40.84909,-73.91439,12/14/22,Preservation,No,Non Prevailing Wage,0,45,33,0,0,1,0,8,49,22,0,0,0,0,79,0,79,79
69422,1730 HARRISON LLC.YR15.FY23,12/14/22,12/14/22,83650,1730,HARRISON AVENUE,1730 HARRISON AVENUE,Bronx,10453,2028670070,2008506,BX-05,14,21502,BX36,40.849218,-73.914646,40.84961,-73.913963,12/14/22,Preservation,No,Non Prevailing Wage,0,54,22,0,0,1,1,28,43,5,0,0,0,0,77,0,77,77
73248,3321 GLENWOOD ROAD APARTMENTS,12/14/22,,1006823,3321,GLENWOOD ROAD,3321 GLENWOOD ROAD,Brooklyn,11210,3050080001,3000000,BK-17,45,784,BK91,40.634202,-73.944598,40.63448,-73.944112,,New Construction,No,Non Prevailing Wage,0,0,0,0,9,0,0,5,4,0,0,0,0,0,9,0,9,27
73756,440 E 115TH STREET APARTMENTS,12/14/22,,1007285,440,EAST 115 STREET,440 EAST 115 STREET,Manhattan,10029,1017080033,1000000,MN-11,8,178,MN34,40.794897,-73.93493,40.79457,-73.934685,,New Construction,No,Non Prevailing Wage,0,0,0,0,5,0,1,1,3,0,0,0,0,0,5,0,5,15
67528,560 W. 165TH STREET HDFC.YR15.FY23,12/13/22,,8168,3926,BROADWAY,3926 BROADWAY,Manhattan,10032,1021220077,1062928,MN-12,7,245,MN36,40.838712,-73.941468,40.83876,-73.94093,,Preservation,No,Non Prevailing Wage,119,20,7,0,0,0,128,10,4,4,0,0,0,0,146,0,146,146
72135,16 DUPONT STREET,12/12/22,,1006239,16,DUPONT STREET,16 DUPONT STREET,Brooklyn,11222,3024940006,3000000,BK-01,33,563,BK76,40.735452,-73.959716,40.73521,-73.959915,,New Construction,No,Non Prevailing Wage,0,0,37,0,0,0,9,9,19,0,0,0,0,0,37,0,37,381
73300,25-15 36 STREET APARTMENTS,12/9/22,,972645,25-15,36 STREET,25-15 36 STREET,Queens,11103,4006520035,4010087,QN-01,22,6502,QN70,40.768899,-73.914222,40.76883,-73.913948,,New Construction,No,Non Prevailing Wage,0,0,0,0,3,0,0,2,1,0,0,0,0,0,3,0,3,7
73314,25-56 97 STREET APARTMENTS,12/9/22,,1006526,25-56,97 STREET,25-56 97 STREET,Queens,11369,4013700038,4032662,QN-03,21,361,QN27,40.76291,-73.872417,40.7629,-73.872767,,New Construction,No,Non Prevailing Wage,0,0,0,0,3,0,0,0,3,0,0,0,0,0,3,0,3,8
72783,250 EAST 83 ST,12/7/22,,1006861,250,EAST 83 STREET,250 EAST 83 STREET,Manhattan,10028,1015280028,1000000,MN-08,5,138,MN32,40.776382,-73.954276,40.77586,-73.953619,,New Construction,No,Non Prevailing Wage,0,0,9,0,0,0,0,0,9,0,0,0,0,0,9,0,9,128
73246,1215 FULTON STREET,12/7/22,,79723,1215,FULTON AVENUE,1215 FULTON AVENUE,Bronx,10456,2026090033,2000000,BX-03,16,145,BX01,40.830338,-73.904712,40.83057,-73.904939,,New Construction,No,Non Prevailing Wage,0,0,0,0,10,0,2,3,5,0,0,0,0,0,10,0,10,31
73296,61 THOMPSON STREET,12/7/22,,988134,61,THOMPSON STREET,61 THOMPSON STREET,Staten Island,10304,5005240039,5000000,SI-01,49,27,SI37,40.625934,-74.076127,40.6261,-74.076257,,New Construction,No,Non Prevailing Wage,0,0,0,0,9,0,0,8,0,1,0,0,0,0,9,0,9,10
69863,50TH STREET HDFC.GHPP.FY23,12/6/22,,154305,329,50 STREET,329 50 STREET,Brooklyn,11220,3007820056,3012902,BK-07,38,78,BK32,40.6472,-74.013777,40.64733,-74.013557,,Preservation,No,Non Prevailing Wage,2,8,14,0,0,0,0,4,10,7,3,0,0,0,24,0,24,24
69863,50TH STREET HDFC.GHPP.FY23,12/6/22,,810028,345,50 STREET,345 50 STREET,Brooklyn,11220,3007820056,3341212,BK-07,38,78,BK32,40.647079,-74.013575,40.64733,-74.013557,,Preservation,No,Non Prevailing Wage,2,7,15,0,0,0,0,5,11,5,3,0,0,0,24,0,24,24
73757,1701 CLAY AVENUE APARTMENTS_HPS,12/5/22,,56959,1701,CLAY AVENUE,1701 CLAY AVENUE,Bronx,10457,2027900049,2000000,BX-04,15,22902,BX41,40.84424,-73.904883,40.84427,-73.905176,,New Construction,No,Non Prevailing Wage,0,0,0,0,16,0,5,5,5,1,0,0,0,0,16,0,16,17
72172,141 WEST 73RD STREET,12/2/22,,35067,141,WEST 73 STREET,141 WEST 73 STREET,Manhattan,10023,1011450012,1030011,MN-07,6,157,MN14,40.778624,-73.979527,40.77895,-73.979747,,Preservation,No,Non Prevailing Wage,0,0,173,0,0,0,68,88,17,0,0,0,0,0,173,0,173,174
73313,422 EAST 31 STREET,12/1/22,,256929,422,EAST 31 STREET,422 EAST 31 STREET,Brooklyn,11226,3049640016,3000000,BK-17,45,828,BK95,40.640426,-73.947494,40.64045,-73.947778,,New Construction,No,Non Prevailing Wage,0,0,0,0,3,0,0,1,2,0,0,0,0,0,3,0,3,10
73319,3254 PARKSIDE PLACE,12/1/22,,1007099,3254,PARKSIDE PLACE,3254 PARKSIDE PLACE,Bronx,10467,2033550061,2000000,BX-07,11,42901,BX43,40.875159,-73.87355,40.87554,-73.873148,,New Construction,No,Non Prevailing Wage,0,0,0,0,30,0,8,10,9,3,0,0,0,0,30,0,30,98
72413,375 DEAN STREET,11/30/22,,1001963,375,DEAN STREET,375 DEAN STREET,Brooklyn,11217,3009280001,3000000,BK-06,39,12901,BK37,40.682925,-73.978634,40.68313,-73.978565,,New Construction,No,Non Prevailing Wage,0,28,0,5,0,0,6,22,5,0,0,0,0,0,33,0,33,143
73312,28-15 35TH STREET,11/29/22,,422857,28-15,35 STREET,28-15 35 STREET,Queens,11103,4006290015,4000000,QN-01,22,6502,QN70,40.766727,-73.917091,40.76644,-73.916972,,New Construction,No,Non Prevailing Wage,0,0,0,0,6,0,0,6,0,0,0,0,0,0,6,0,6,20
73318,6020 3RD AVENUE,11/29/22,,127854,6016,3 AVENUE,6016 3 AVENUE,Brooklyn,11220,3057800045,3000000,BK-07,38,22,BK32,40.641718,-74.020744,40.64185,-74.021249,,New Construction,No,Non Prevailing Wage,0,0,0,0,16,0,0,1,15,0,0,0,0,0,16,0,16,53
73758,422 RUTLAND ROAD,11/29/22,,1006515,422,RUTLAND ROAD,422 RUTLAND ROAD,Brooklyn,11203,3048100018,3000000,BK-09,40,810,BK60,40.659633,-73.946668,40.65942,-73.946625,,New Construction,No,Non Prevailing Wage,0,0,0,0,2,0,0,2,0,0,0,0,0,0,2,0,2,6
73299,104-08 NORTHERN BOULEVARD,11/28/22,,684494,104-08,NORTHERN BOULEVARD,104-08 NORTHERN BOULEVARD,Queens,11368,4017190003,4042651,QN-03,21,379,QN26,40.757691,-73.864432,40.75741,-73.864299,,New Construction,No,Non Prevailing Wage,0,0,0,0,3,0,0,3,0,0,0,0,0,0,3,0,3,7
73311,3029 AND 3031 BRONXWOOD AVENUE,11/28/22,,52399,3031,BRONXWOOD AVENUE,3031 BRONXWOOD AVENUE,Bronx,10469,2045730038,2055725,BX-12,12,340,BX07,40.870087,-73.861429,40.8706,-73.861725,,New Construction,No,Non Prevailing Wage,0,0,0,0,3,0,1,2,0,0,0,0,0,0,3,0,3,8
73311,3029 AND 3031 BRONXWOOD AVENUE,11/28/22,,1007120,3029,BRONXWOOD AVENUE,3029 BRONXWOOD AVENUE,Bronx,10469,,,BX-12,12,340,BX07,40.870068,-73.861429,,,,New Construction,No,Non Prevailing Wage,0,0,0,0,3,0,0,3,0,0,0,0,0,0,3,0,3,8
71243,2508 FOSTER AVENUE,11/23/22,,999221,2508,FOSTER AVENUE,2508 FOSTER AVENUE,Brooklyn,11210,3052270024,3120869,BK-14,45,788,BK42,40.638416,-73.953228,40.63829,-73.953163,,New Construction,No,Non Prevailing Wage,0,0,9,0,0,0,1,0,8,0,0,0,0,0,9,0,9,52
70653,29-10 21ST STREET,11/22/22,,1006627,29-10,21 STREET,29-10 21 STREET,Queens,11102,4005370043,4006047,QN-01,22,83,QN71,40.77027,-73.927517,40.77041,-73.927806,,New Construction,No,Non Prevailing Wage,0,0,8,0,0,0,0,8,0,0,0,0,0,0,8,0,8,28
71833,106 GERRY STREET,11/22/22,,819577,106,GERRY STREET,106 GERRY STREET,Brooklyn,11206,3022700001,3061454,BK-01,33,507,BK75,40.702358,-73.946049,40.70214,-73.945739,,Preservation,No,Non Prevailing Wage,0,0,45,0,0,0,0,0,24,21,0,0,0,0,45,0,45,46
71733,39-26 30TH STREET,11/21/22,,1006843,39-26,30 STREET,39-26 30 STREET,Queens,11101,4003990031,4004852,QN-01,26,31,QN68,40.752729,-73.934062,40.75252,-73.934592,,New Construction,No,Non Prevailing Wage,0,0,16,0,0,0,0,16,0,0,0,0,0,0,16,0,16,50
73759,LINCOLN AT BANKSIDE APARTMENTS,11/21/22,,92017,101,LINCOLN AVENUE,101 LINCOLN AVENUE,Bronx,10454,2023160001,2000000,BX-01,8,19,BX39,40.807149,-73.929969,40.8075,-73.93068,,New Construction,No,Non Prevailing Wage,0,0,0,0,277,0,57,138,71,11,0,0,0,0,277,0,277,921
73310,727 DEKALB AVENUE,11/17/22,,1007122,727,DEKALB AVENUE,727 DEKALB AVENUE,Brooklyn,11216,3017750059,3000000,BK-03,36,261,BK75,40.691882,-73.94706,40.69209,-73.947107,,New Construction,No,Non Prevailing Wage,0,0,0,0,3,0,0,3,0,0,0,0,0,0,3,0,3,10
68726,SOUTHERN & WILLIS.YR15.FY23,11/16/22,,63011,401,EAST 140 STREET,401 EAST 140 STREET,Bronx,10454,2022850001,2000331,BX-01,8,39,BX39,40.810191,-73.921415,40.81036,-73.92156,,Preservation,No,Non Prevailing Wage,0,7,0,0,0,1,0,0,3,5,0,0,0,0,8,0,8,8
68726,SOUTHERN & WILLIS.YR15.FY23,11/16/22,,63260,520,EAST 142 STREET,520 EAST 142 STREET,Bronx,10454,2022680013,2000095,BX-01,8,41,BX39,40.810127,-73.916947,40.80996,-73.917128,,Preservation,No,Non Prevailing Wage,0,9,0,0,0,0,0,8,0,1,0,0,0,0,9,0,9,9
68726,SOUTHERN & WILLIS.YR15.FY23,11/16/22,,110183,651,SOUTHERN BOULEVARD,651 SOUTHERN BOULEVARD,Bronx,10455,2026830090,2005090,BX-02,8,83,BX33,40.813117,-73.900697,40.81343,-73.9007,,Preservation,No,Non Prevailing Wage,7,28,5,0,0,1,0,11,28,2,0,0,0,0,41,0,41,41
68726,SOUTHERN & WILLIS.YR15.FY23,11/16/22,,125025,304,WILLIS AVENUE,304 WILLIS AVENUE,Bronx,10454,2022850002,2000332,BX-01,8,39,BX39,40.810559,-73.921823,40.81042,-73.921513,,Preservation,No,Non Prevailing Wage,0,15,3,0,0,0,0,8,10,0,0,0,0,0,18,0,18,18
69762,1881-1885 MCDONALD AVENUE,11/16/22,,994567,1885,MCDONALD AVENUE,1885 MCDONALD AVENUE,Brooklyn,11223,3066330045,3000000,BK-15,44,422,BK25,40.607,-73.97264,40.6069,-73.972262,,New Construction,No,Non Prevailing Wage,0,0,14,0,0,0,0,0,13,1,0,0,0,0,14,0,14,41
73760,THIRD AVENUE AND EAST 134TH STREET,11/10/22,,1002413,2455,3 AVENUE,2455 3 AVENUE,Bronx,10451,2023190055,2000000,BX-01,8,51,BX39,40.809093,-73.929837,40.80992,-73.931744,,New Construction,No,Non Prevailing Wage,0,0,0,0,43,0,24,1,18,0,0,0,0,0,43,0,43,141
69505,COMUNILIFE. 171 THROOP AVE. WOODHULL II,11/4/22,,1006444,171,THROOP AVENUE,171 THROOP AVENUE,Brooklyn,11206,3017230003,3000000,BK-03,36,28501,BK78,40.698685,-73.944029,40.69886,-73.943776,,New Construction,No,Non Prevailing Wage,77,0,15,0,0,1,71,22,0,0,0,0,0,0,93,0,93,93
73252,451 10TH AVENUE,11/3/22,,5064,451,10 AVENUE,451 10 AVENUE,Manhattan,10018,1007070031,1000000,MN-04,3,99,MN13,40.755303,-73.998636,40.75561,-73.998892,,New Construction,No,Non Prevailing Wage,0,54,54,27,0,0,64,60,11,0,0,0,0,0,135,0,135,532
73761,282 GRAND STREET APARTMENTS,11/3/22,,991290,286,GRAND STREET,286 GRAND STREET,Manhattan,10002,1004180051,1000000,MN-03,1,18,MN27,40.717725,-73.992417,40.71791,-73.992316,,New Construction,No,Non Prevailing Wage,0,0,3,0,5,0,0,8,0,0,0,0,0,0,8,0,8,25
73242,2438 LYVERE STREET,11/1/22,,979527,2438,LYVERE STREET,2438 LYVERE STREET,Bronx,10461,2039970046,2042240,BX-10,18,204,BX59,40.842175,-73.852195,40.84206,-73.851614,,New Construction,No,Non Prevailing Wage,0,0,0,0,14,0,2,11,1,0,0,0,0,0,14,0,14,45
73294,433 VERMONT STREET APARTMENTS,11/1/22,,386731,433,VERMONT STREET,433 VERMONT STREET,Brooklyn,11207,3037740114,3330434,BK-05,42,1158,BK85,40.668887,-73.893104,40.66901,-73.892859,,New Construction,No,Non Prevailing Wage,0,0,0,0,8,0,0,3,5,0,0,0,0,0,8,0,8,11
73235,46 STOCKHOLM STREET,10/31/22,,377737,46,STOCKHOLM STREET,46 STOCKHOLM STREET,Brooklyn,11221,3032540011,3000000,BK-04,34,421,BK78,40.696204,-73.926003,40.69589,-73.925968,,New Construction,No,Non Prevailing Wage,0,0,0,0,2,0,0,1,1,0,0,0,0,0,2,0,2,6
73236,363 EAST 145TH STREET,10/31/22,,63408,363,EAST 145 STREET,363 EAST 145 STREET,Bronx,10454,2023070030,2000667,BX-01,8,43,BX39,40.813975,-73.920721,40.81406,-73.920374,,New Construction,No,Non Prevailing Wage,0,0,0,0,3,0,0,3,0,0,0,0,0,0,3,0,3,8
71969,1640 PARK AVENUE,10/28/22,,1006419,95,EAST 116 STREET,95 EAST 116 STREET,Manhattan,10029,1016220033,1000000,MN-11,8,184,MN34,40.799466,-73.943587,40.7996,-73.943489,,New Construction,No,Non Prevailing Wage,0,3,3,0,0,0,2,2,2,0,0,0,0,0,6,0,6,24
73249,828 NEW YORK AVENUE,10/28/22,,344032,828,NEW YORK AVENUE,828 NEW YORK AVENUE,Brooklyn,11203,3048530060,3000000,BK-17,40,818,BK95,40.653529,-73.946961,40.65354,-73.947296,,New Construction,No,Non Prevailing Wage,0,0,0,0,8,0,0,8,0,0,0,0,0,0,8,0,8,24
72129,589 FULTON STREET,10/27/22,,1004838,589,FULTON STREET,589 FULTON STREET,Brooklyn,11201,3001490014,3000000,BK-02,33,33,BK68,40.689027,-73.981217,40.6892,-73.981372,,New Construction,No,Non Prevailing Wage,0,0,8,0,0,0,2,2,4,0,0,0,0,0,8,0,8,591
73185,1565 NEW YORK,10/27/22,,989571,1565,NEW YORK AVENUE,1565 NEW YORK AVENUE,Brooklyn,11210,3050080011,3114064,BK-17,45,784,BK91,40.63477,-73.944933,40.63464,-73.944601,,New Construction,No,Non Prevailing Wage,0,0,0,0,7,0,0,4,3,0,0,0,0,0,7,0,7,22
73230,576 LENOX ROAD APARTMENTS,10/25/22,,324196,576,LENOX ROAD,576 LENOX ROAD,Brooklyn,11203,3048620004,3108299,BK-17,41,814,BK91,40.654815,-73.939031,40.6546,-73.93893,,New Construction,No,Non Prevailing Wage,0,0,0,0,3,0,0,1,2,0,0,0,0,0,3,0,3,8
73240,26-41 3RD STREET,10/25/22,,399231,26-35,3 STREET,26-35 3 STREET,Queens,11102,4009100001,4000000,QN-01,22,87,QN71,40.77587,-73.933793,40.77519,-73.933884,,New Construction,No,Non Prevailing Wage,0,0,0,0,18,0,2,12,4,0,0,0,0,0,18,0,18,60
73247,82 4TH AVENUE,10/25/22,,129636,82,4 AVENUE,82 4 AVENUE,Brooklyn,11217,3003890041,3000000,BK-02,33,127,BK38,40.682028,-73.979936,40.68217,-73.980228,,New Construction,No,Non Prevailing Wage,0,0,0,0,9,0,0,9,0,0,0,0,0,0,9,0,9,28
73308,598 EAGLE AVENUE,10/25/22,,1007123,598,EAGLE AVENUE,598 EAGLE AVENUE,Bronx,10455,,,BX-01,17,73,BX34,40.815033,-73.911392,,,,New Construction,No,Non Prevailing Wage,0,0,0,0,4,0,3,0,1,0,0,0,0,0,4,0,4,13
73309,4023 10TH AVENUE,10/25/22,,982307,4023,10 AVENUE,4023 10 AVENUE,Brooklyn,11219,3055870002,3000000,BK-12,39,110,BK34,40.643885,-73.993658,40.64349,-73.993716,,New Construction,No,Non Prevailing Wage,0,0,0,0,3,0,0,1,2,0,0,0,0,0,3,0,3,10
73237,124 WITHERS STREET,10/24/22,,397565,124,WITHERS STREET,124 WITHERS STREET,Brooklyn,11211,3027430020,3068278,BK-01,34,501,BK90,40.717139,-73.947101,40.71693,-73.947015,,New Construction,No,Non Prevailing Wage,0,0,0,0,5,0,0,5,0,0,0,0,0,0,5,0,5,14
73762,140 STEBBINS AVENUE APARTMENTS,10/24/22,,111356,1420,STEBBINS AVENUE,1420 STEBBINS AVENUE,Bronx,10459,2029650042,2126638,BX-03,17,153,BX75,40.833842,-73.894281,40.83387,-73.894021,,New Construction,No,Non Prevailing Wage,0,0,0,0,73,0,0,13,37,22,1,0,0,0,73,0,73,73
66645,PROJECT RENEWAL. 2880 JEROME AVE,10/19/22,,991391,2880,JEROME AVENUE,2880 JEROME AVENUE,Bronx,10468,2033190046,2017590,BX-07,14,40701,BX28,40.87181,-73.89161,40.87151,-73.891614,,New Construction,No,Non Prevailing Wage,94,17,5,0,0,0,80,24,12,0,0,0,0,0,116,0,116,116
71445,HOUSING PLUS. 797 GLENMORE AVE. SHEPHERD-GLENMORE,10/19/22,,1006212,365,SHEPHERD AVENUE,365 SHEPHERD AVENUE,Brooklyn,11208,3039890036,3000000,BK-05,37,1166,BK82,40.675765,-73.8812,40.67561,-73.880973,,New Construction,No,Non Prevailing Wage,95,10,17,0,0,1,73,42,8,0,0,0,0,0,123,0,123,123
73243,3168 VILLA AVENUE,10/19/22,,117815,3168,VILLA AVENUE,3168 VILLA AVENUE,Bronx,10468,2033110032,2000000,BX-07,11,411,BX05,40.876331,-73.886974,40.87616,-73.886765,,New Construction,No,Non Prevailing Wage,0,0,0,0,14,0,8,5,1,0,0,0,0,0,14,0,14,44
70276,CLERMONT AREA HDFC.GHPP.FY23,10/17/22,,222850,389,CLINTON AVENUE,389 CLINTON AVENUE,Brooklyn,11238,3019610027,3055994,BK-02,35,199,BK69,40.686079,-73.967397,40.6862,-73.967026,,Preservation,No,Non Prevailing Wage,1,30,10,0,0,0,0,22,7,2,10,0,0,0,0,41,41,41
71808,23 OCEAN PARKWAY,10/13/22,,1002856,23C,OCEAN PARKWAY,23C OCEAN PARKWAY,Brooklyn,11218,,,BK-07,39,504,BK40,40.650467,-73.97361,,,,New Construction,No,Non Prevailing Wage,0,15,18,0,0,0,8,8,17,0,0,0,0,0,33,0,33,131
73241,101-19 ROCKAWAY BEACH BOULEVARD,10/13/22,,998462,101-19,ROCKAWAY BEACH BOULEVAR,101-19 ROCKAWAY BEACH BOULEVAR,Queens,11694,4162860101,4000000,QN-14,32,928,QN10,40.570817,-73.854379,40.57029,-73.850929,,New Construction,No,Non Prevailing Wage,0,0,0,0,18,0,4,11,3,0,0,0,0,0,18,0,18,60
69287,TRINITY HOUSE,10/12/22,,9801,100,WEST 92 STREET,100 WEST 92 STREET,Manhattan,10025,1012220029,1032499,MN-07,6,177,MN12,40.790446,-73.969766,40.79015,-73.97003,,Preservation,No,Non Prevailing Wage,30,121,0,9,0,1,33,58,47,23,0,0,0,0,161,0,161,200
71720,1045 ANDERSON AVE HDFC.GHPP.FY23 (LOAN),10/12/22,,45413,1045,ANDERSON AVENUE,1045 ANDERSON AVENUE,Bronx,10452,2025080026,2003142,BX-04,8,189,BX26,40.833453,-73.926292,40.83339,-73.926642,,Preservation,No,Non Prevailing Wage,3,41,4,0,0,1,2,34,13,0,0,0,0,0,0,49,49,49
71931,11 OCEAN PARKWAY,10/11/22,,1005838,11,OCEAN PARKWAY,11 OCEAN PARKWAY,Brooklyn,11218,3053220010,3000000,BK-07,39,504,BK40,40.650632,-73.973191,40.6503,-73.972831,,New Construction,No,Non Prevailing Wage,0,38,38,19,0,0,0,67,28,0,0,0,0,0,95,0,95,375
73275,319 LENOX ROAD APARTMENTS,10/7/22,,1006084,319,LENOX ROAD,319 LENOX ROAD,Brooklyn,11226,3048370084,3107783,BK-17,40,818,BK95,40.654235,-73.948741,40.65457,-73.948874,,New Construction,No,Non Prevailing Wage,0,0,0,0,9,0,4,5,0,0,0,0,0,0,9,0,9,28
71806,380 4TH AVENUE_MIH71762,10/6/22,,1000732,380,4 AVENUE,380 4 AVENUE,Brooklyn,11215,3009800077,3021051,BK-06,39,119,BK37,40.67268,-73.986791,40.67284,-73.987098,,New Construction,No,Non Prevailing Wage,0,19,21,10,0,0,0,35,15,0,0,0,0,0,50,0,50,197
70648,3300 PALMER AVE.HPO.FY23,9/29/22,9/29/22,832306,3300,PALMER AVENUE,3300 PALMER AVENUE,Bronx,10475,2052280041,2102474,BX-12,12,46202,BX13,40.878305,-73.834946,40.87861,-73.834789,9/29/22,Preservation,No,Non Prevailing Wage,0,0,46,74,14,1,0,7,83,45,0,0,0,0,135,0,135,135
73281,1661 SUMMERFIELD AVENUE,9/28/22,,1004947,16-61,SUMMERFIELD STREET,16-61 SUMMERFIELD STREET,Queens,11385,4035540061,4623327,QN-05,34,559,QN20,40.695884,-73.901359,40.6963,-73.901272,,New Construction,No,Non Prevailing Wage,0,0,0,0,9,0,0,7,2,0,0,0,0,0,9,0,9,28
73763,426 MANHATTAN AVENUE APARTMENTS,9/23/22,,1005140,426,MANHATTAN AVENUE,426 MANHATTAN AVENUE,Brooklyn,11222,,,BK-01,33,499,BK76,40.719132,-73.946862,,,,New Construction,No,Non Prevailing Wage,0,0,0,0,10,0,1,6,1,2,0,0,0,0,10,0,10,33
68833,SETTLEMENT. SHF CLUSTER. NR REHAB,9/22/22,,66439,690,EAST 182 STREET,690 EAST 182 STREET,Bronx,10457,2030830034,2012402,BX-06,15,373,BX17,40.850784,-73.887227,40.85054,-73.887264,,Preservation,No,Non Prevailing Wage,25,0,24,0,0,1,0,38,12,0,0,0,0,0,50,0,50,50
68833,SETTLEMENT. SHF CLUSTER. NR REHAB,9/22/22,,66759,737,EAST 187 STREET,737 EAST 187 STREET,Bronx,10458,2031040061,2012898,BX-06,15,393,BX06,40.853802,-73.883231,40.85402,-73.88313,,Preservation,No,Non Prevailing Wage,16,0,15,0,0,0,0,11,15,5,0,0,0,0,31,0,31,31
68833,SETTLEMENT. SHF CLUSTER. NR REHAB,9/22/22,,66764,751,EAST 187 STREET,751 EAST 187 STREET,Bronx,10458,2031150001,2013059,BX-06,15,393,BX06,40.853612,-73.88257,40.85373,-73.882389,,Preservation,No,Non Prevailing Wage,15,0,13,0,0,1,0,10,18,1,0,0,0,0,29,0,29,29
68833,SETTLEMENT. SHF CLUSTER. NR REHAB,9/22/22,,81701,1466,GRAND CONCOURSE,1466 GRAND CONCOURSE,Bronx,10457,2028320040,2007993,BX-04,14,225,BX14,40.840612,-73.912796,40.84055,-73.912308,,Preservation,No,Non Prevailing Wage,29,0,28,0,0,1,0,23,29,6,0,0,0,0,58,0,58,58
68833,SETTLEMENT. SHF CLUSTER. NR REHAB,9/22/22,,125735,1415,WYTHE PLACE,1415 WYTHE PLACE,Bronx,10452,2028430093,2008104,BX-04,14,223,BX63,40.839607,-73.914836,40.83981,-73.915023,,Preservation,No,Non Prevailing Wage,8,7,30,14,0,1,0,43,12,5,0,0,0,0,60,0,60,60
73295,370 EAST 158 STREET,9/22/22,,1005822,370,EAST 158 STREET,370 EAST 158 STREET,Bronx,10451,2024040012,2000000,BX-01,17,69,BX34,40.822607,-73.915869,40.82242,-73.915952,,New Construction,No,Non Prevailing Wage,0,0,0,0,11,0,0,11,0,0,0,0,0,0,11,0,11,12
73306,571 OCEAN PARKWAY APARTMENTS,9/22/22,,348602,571,OCEAN PARKWAY,571 OCEAN PARKWAY,Brooklyn,11218,3054000072,3000000,BK-12,39,484,BK41,40.634605,-73.972434,40.63445,-73.971782,,New Construction,No,Non Prevailing Wage,0,0,0,0,9,0,0,9,0,0,0,0,0,0,9,0,9,29
73195,1147-1167 VYSE AVENUE APARTMENTS,9/21/22,,1005485,1167,VYSE AVENUE,1167 VYSE AVENUE,Bronx,10459,2027520036,2000000,BX-03,17,12101,BX35,40.827879,-73.889965,40.82818,-73.890229,,New Construction,No,Non Prevailing Wage,0,0,0,0,3,0,1,2,0,0,0,0,0,0,3,0,3,10
73195,1147-1167 VYSE AVENUE APARTMENTS,9/21/22,,1005644,1147,VYSE AVENUE,1147 VYSE AVENUE,Bronx,10459,2027520046,2000000,BX-03,17,12101,BX35,40.827539,-73.889973,40.82763,-73.890237,,New Construction,No,Non Prevailing Wage,0,0,0,0,3,0,1,0,2,0,0,0,0,0,3,0,3,10
73292,364 AND 366 EAST 184 STREET,9/21/22,,999169,364,EAST 184 STREET,364 EAST 184 STREET,Bronx,10458,2031430283,2000000,BX-05,15,38302,BX40,40.857596,-73.895653,40.85764,-73.89591,,New Construction,No,Non Prevailing Wage,0,0,0,0,6,0,1,5,0,0,0,0,0,0,6,0,6,10
73292,364 AND 366 EAST 184 STREET,9/21/22,,1006037,366,EAST 184 STREET,366 EAST 184 STREET,Bronx,10458,2031430284,2000000,BX-05,15,38302,BX40,40.857558,-73.895678,40.85762,-73.895928,,New Construction,No,Non Prevailing Wage,0,0,0,0,6,0,1,5,0,0,0,0,0,0,6,0,6,10
73245,2586 BAINBRIDGE AVENUE,9/20/22,,46635,2586,BAINBRIDGE AVENUE,2586 BAINBRIDGE AVENUE,Bronx,10458,2032860038,2000000,BX-07,15,39901,BX05,40.863582,-73.892672,40.86367,-73.892364,,New Construction,No,Non Prevailing Wage,0,0,0,0,10,0,0,0,10,0,0,0,0,0,10,0,10,32
73270,308 LINDEN BOULEVARD,9/20/22,,1006273,308,LINDEN BOULEVARD,308 LINDEN BOULEVARD,Brooklyn,11226,3048680039,3000000,BK-17,40,818,BK95,40.652731,-73.947967,40.6524,-73.947837,,New Construction,No,Non Prevailing Wage,0,0,0,0,6,0,4,0,2,0,0,0,0,0,6,0,6,18
64828,RB.598-604 E 40TH STREET.BETHANY HOUSES,9/19/22,,989272,604,EAST 40 STREET,604 EAST 40 STREET,Brooklyn,11203,3049730016,3112625,BK-17,45,834,BK91,40.640688,-73.938903,40.64065,-73.93917,,New Construction,No,Prevailing Wage,57,0,0,0,0,1,45,12,0,1,0,0,0,0,58,0,58,58
73764,4607 PARK DEVELOPMENT LLC,9/19/22,,984408,4607,PARK AVENUE,4607 PARK AVENUE,Bronx,10458,2030310054,2127293,BX-06,15,38302,BX40,40.857503,-73.893394,40.85755,-73.893936,,New Construction,No,Non Prevailing Wage,0,0,9,0,18,0,0,20,7,0,0,0,0,0,27,0,27,90
73765,1144 EVERGREEN DEVELOPMENT LLC,9/19/22,,994661,1144,EVERGREEN AVENUE,1144 EVERGREEN AVENUE,Bronx,10472,2037387501,2127944,BX-09,17,5002,BX55,40.827014,-73.880702,40.82704,-73.880438,,New Construction,No,Non Prevailing Wage,0,0,0,0,22,0,4,12,6,0,0,0,0,0,22,0,22,73
71033,BROOKLYN - 2177 60'TH STREET_MIH70942,9/15/22,,998591,2177,60TH STREET,2177 60TH STREET,Brooklyn,11204,3055150043,3000000,BK-12,44,246,BK88,40.617127,-73.979134,40.61714,-73.978449,,New Construction,No,Non Prevailing Wage,0,0,2,3,9,0,3,4,7,0,0,0,0,0,14,0,14,44
73766,ANTHONY BUSH DEVELOPMENT LLC,9/14/22,,1005930,218,BUSH STREET,218 BUSH STREET,Bronx,10457,2028120023,2000000,BX-05,15,23502,BX41,40.851521,-73.903557,40.85131,-73.90342,,New Construction,No,Non Prevailing Wage,0,0,0,0,28,0,6,18,4,0,0,0,0,0,28,0,28,91
73298,51 EAST 51 STREET,9/12/22,,1005179,51,EAST 51 STREET,51 EAST 51 STREET,Brooklyn,11203,3045920129,3000000,BK-17,41,880,BK60,40.661041,-73.930346,40.66094,-73.930058,,New Construction,No,Non Prevailing Wage,0,0,0,0,6,0,0,6,0,0,0,0,0,0,6,0,6,7
73272,303 POWELL STREET,9/8/22,,354724,303,POWELL STREET,303 POWELL STREET,Brooklyn,11212,3037630006,3084226,BK-16,42,910,BK81,40.667082,-73.903301,40.66707,-73.90298,,New Construction,No,Non Prevailing Wage,0,0,0,0,7,0,0,0,7,0,0,0,0,0,7,0,7,22
73274,99-45 66TH AVENUE,9/8/22,,458509,99-45,66 AVENUE,99-45 66 AVENUE,Queens,11374,4021160057,4050958,QN-06,29,71304,QN17,40.728445,-73.854439,40.72899,-73.853356,,New Construction,No,Non Prevailing Wage,0,0,0,0,4,0,0,4,0,0,0,0,0,0,4,0,4,12
73234,21 MESEROLE STREET,9/7/22,,939724,21,MESEROLE STREET,21 MESEROLE STREET,Brooklyn,11206,3030400044,3000000,BK-01,34,511,BK90,40.707493,-73.949518,40.70769,-73.949569,,New Construction,No,Non Prevailing Wage,0,0,0,0,8,0,0,7,1,0,0,0,0,0,8,0,8,24
73289,1503 MORRIS AVENUE,9/7/22,,97396,1503,MORRIS AVENUE,1503 MORRIS AVENUE,Bronx,10457,2028200062,2007846,BX-04,16,225,BX14,40.841096,-73.909499,40.84116,-73.909767,,New Construction,No,Non Prevailing Wage,0,0,0,0,19,0,16,3,0,0,0,0,0,0,19,0,19,20
73265,90 LIBERTY AVENUE,9/6/22,,1007093,90,LIBERTY AVENUE,90 LIBERTY AVENUE,Brooklyn,11212,3036920016,3000000,BK-16,37,908,BK81,40.672781,-73.90737,40.67268,-73.907305,,New Construction,No,Non Prevailing Wage,0,0,0,0,3,0,0,1,2,0,0,0,0,0,3,0,3,8
73269,1200 & 1202 DECATUR STREET,9/6/22,,1004660,1200,DECATUR STREET,1200 DECATUR STREET,Brooklyn,11207,3034350013,3079741,BK-04,37,411,BK78,40.688964,-73.90734,40.68879,-73.907164,,New Construction,No,Non Prevailing Wage,0,0,0,0,3,0,0,2,1,0,0,0,0,0,3,0,3,8
73269,1200 & 1202 DECATUR STREET,9/6/22,,1004684,1202,DECATUR STREET,1202 DECATUR STREET,Brooklyn,11207,3034350015,3326359,BK-04,37,411,BK78,40.688997,-73.907308,40.68885,-73.90711,,New Construction,No,Non Prevailing Wage,0,0,0,0,3,0,0,2,1,0,0,0,0,0,3,0,3,8
73297,1804 PALISADE PLACE APARTMENTS,9/6/22,,1004740,1804,PALISADE PLACE,1804 PALISADE PLACE,Bronx,10453,2028770547,2000000,BX-05,14,20502,BX36,40.85193,-73.918272,40.85206,-73.918087,,New Construction,No,Non Prevailing Wage,0,0,0,0,7,0,0,7,0,0,0,0,0,0,7,0,7,8
73307,2117 BATHGATE AVENUE,9/6/22,,1007119,2117,BATHGATE AVENUE,2117 BATHGATE AVENUE,Bronx,10457,2030470019,2000000,BX-06,15,395,BX01,40.851395,-73.894618,40.85156,-73.894856,,New Construction,No,Non Prevailing Wage,0,0,0,0,4,0,3,1,0,0,0,0,0,0,4,0,4,12
73232,195 HERZL STREET APARTMENTS,9/1/22,,311808,195,HERZL STREET,195 HERZL STREET,Brooklyn,11212,3035390005,3000000,BK-16,41,902,BK81,40.665383,-73.914496,40.66537,-73.914207,,New Construction,No,Non Prevailing Wage,0,0,0,0,3,0,0,3,0,0,0,0,0,0,3,0,3,8
73287,2189 ARTHUR AVENUE APARTMENTS,9/1/22,,1005079,2189,ARTHUR AVENUE,2189 ARTHUR AVENUE,Bronx,10457,2030630058,2000000,BX-06,15,37504,BX17,40.852066,-73.890005,40.85193,-73.89028,,New Construction,No,Non Prevailing Wage,0,0,0,0,24,0,0,13,10,1,0,0,0,0,24,0,24,25
70891,BRC. 13-12 BEACH CHANNEL DRIVE,8/31/22,,1000194,13-12,BEACH CHANNEL DRIVE,13-12 BEACH CHANNEL DRIVE,Queens,11691,4155280005,4297852,QN-14,31,103201,QN15,40.605609,-73.754996,40.60549,-73.754528,,New Construction,No,Non Prevailing Wage,88,0,58,0,0,1,125,9,13,0,0,0,0,0,147,0,147,147
73280,35-64 85TH STREET,8/31/22,,424629,84-11,37 AVENUE,84-11 37 AVENUE,Queens,11372,4014580035,4035834,QN-03,25,281,QN28,40.749971,-73.882244,40.75024,-73.881846,,New Construction,No,Non Prevailing Wage,0,0,0,0,12,0,2,5,5,0,0,0,0,0,12,0,12,40
71751,QUEENS  - 63-68 AUSTIN STREET_MIH71623,8/30/22,,1000124,63-68,AUSTIN STREET,63-68 AUSTIN STREET,Queens,11374,4031040016,4072830,QN-06,29,69701,QN18,40.727204,-73.863642,40.72702,-73.863945,,New Construction,No,Non Prevailing Wage,0,0,19,0,0,0,0,9,10,0,0,0,0,0,19,0,19,78
73228,2069 HONEYWELL AVENUE,8/30/22,,1005141,2069,HONEYWELL AVENUE,2069 HONEYWELL AVENUE,Bronx,10460,2031230068,2000000,BX-06,17,363,BX17,40.844453,-73.882894,40.8444,-73.883349,,New Construction,No,Non Prevailing Wage,0,0,0,0,16,0,0,10,5,1,0,0,0,0,16,0,16,51
73286,82 MILFORD STREET,8/30/22,,1004945,82,MILFORD STREET,82 MILFORD STREET,Brooklyn,11208,3039760065,3088470,BK-05,37,1192,BK82,40.677916,-73.87794,40.67771,-73.878171,,New Construction,No,Non Prevailing Wage,0,0,0,0,3,0,0,1,2,0,0,0,0,0,3,0,3,7
73290,3923 CARPENTER AVENUE APARTMENTS,8/30/22,,1006089,3923,CARPENTER AVENUE,3923 CARPENTER AVENUE,Bronx,10466,2048190013,2000000,BX-12,12,394,BX44,40.88742,-73.864069,40.8874,-73.86438,,New Construction,No,Non Prevailing Wage,0,0,0,0,26,0,9,11,6,0,0,0,0,0,26,0,26,27
73239,3745 RIVERDALE AVENUE,8/29/22,,106852,3741,RIVERDALE AVENUE,3741 RIVERDALE AVENUE,Bronx,10463,2057960127,2000000,BX-08,11,295,BX29,40.887713,-73.907338,40.88757,-73.907975,,New Construction,No,Non Prevailing Wage,0,0,0,0,27,0,6,7,14,0,0,0,0,0,27,0,27,89
72143,540 DEGRAW STREET_MIH72014,8/25/22,,1002094,540,DEGRAW STREET,540 DEGRAW STREET,Brooklyn,11217,3004260001,3006985,BK-06,33,119,BK37,40.680192,-73.98609,40.67989,-73.986346,,New Construction,No,Non Prevailing Wage,0,27,26,14,0,0,8,25,34,0,0,0,0,0,67,0,67,255
73273,2001 NOSTRAND AVENUE,8/24/22,,1006311,2001,NOSTRAND AVENUE,2001 NOSTRAND AVENUE,Brooklyn,11210,3049940013,3000000,BK-17,45,788,BK42,40.63691,-73.948073,40.63678,-73.947749,,New Construction,No,Non Prevailing Wage,0,0,0,0,16,0,0,11,5,0,0,0,0,0,16,0,16,53
73279,3421 GLENWOOD ROAD,8/24/22,,1004904,3421,GLENWOOD ROAD,3421 GLENWOOD ROAD,Brooklyn,11210,3050090001,3114102,BK-17,45,784,BK91,40.634262,-73.94364,40.63454,-73.943178,,New Construction,No,Non Prevailing Wage,0,0,0,0,6,0,1,2,3,0,0,0,0,0,6,0,6,19
73223,2913 SNYDER AVENUE,8/23/22,,1005038,2913,SNYDER AVENUE,2913 SNYDER AVENUE,Brooklyn,11226,3051080049,3000000,BK-17,40,824,BK95,40.648886,-73.950392,40.64915,-73.949854,,New Construction,No,Non Prevailing Wage,0,0,0,0,13,0,0,6,7,0,0,0,0,0,13,0,13,41
73238,4180 CARPENTER AVENUE,8/22/22,,55194,4178,CARPENTER AVENUE,4178 CARPENTER AVENUE,Bronx,10466,2048350045,2000000,BX-12,12,420,BX44,40.893783,-73.860544,40.89385,-73.860208,,New Construction,No,Non Prevailing Wage,0,0,0,0,28,0,1,23,4,0,0,0,0,0,28,0,28,92
73276,1075-1079 LAFAYETTE AVENUE,8/22/22,,321973,1079,LAFAYETTE AVENUE,1079 LAFAYETTE AVENUE,Brooklyn,11221,3016080045,3399412,BK-03,36,289,BK35,40.692454,-73.929019,40.69266,-73.929091,,New Construction,No,Non Prevailing Wage,0,0,0,0,7,0,1,0,6,0,0,0,0,0,7,0,7,22
67200,WEEKSVILLE,8/19/22,,1004976,1559,PROSPECT PLACE,1559 PROSPECT PLACE,Brooklyn,11233,3013630090,3000000,BK-08,41,359,BK61,40.672925,-73.924479,40.67311,-73.924436,,New Construction,No,Non Prevailing Wage,10,21,13,0,0,1,22,8,15,0,0,0,0,0,45,0,45,45
73250,133-28 220 STREET APARTMENTS,8/18/22,,1007110,133-28,220 STREET,133-28 220 STREET,Queens,11413,4129580112,4000000,QN-13,31,626,QN66,40.679414,-73.748859,40.6795,-73.749115,,New Construction,No,Non Prevailing Wage,0,0,0,0,3,0,0,0,3,0,0,0,0,0,3,0,3,8
73264,885 CAULDWELL AVENUE,8/18/22,,55860,885,CAULDWELL AVENUE,885 CAULDWELL AVENUE,Bronx,10456,2026270050,2004474,BX-03,17,185,BX35,40.822427,-73.907238,40.82238,-73.907548,,New Construction,No,Non Prevailing Wage,0,0,0,0,3,0,0,1,0,2,0,0,0,0,3,0,3,10
73271,180 THROOP AVENUE APARTMENTS,8/17/22,,979661,180,THROOP AVENUE,180 THROOP AVENUE,Brooklyn,11206,3017320019,3000000,BK-03,36,257,BK75,40.698858,-73.944087,40.69871,-73.944379,,New Construction,No,Non Prevailing Wage,0,0,0,0,10,0,0,0,10,0,0,0,0,0,10,0,10,33
71573,12 ROCKWELL PLACE,8/16/22,,1004936,12,ROCKWELL PLACE,12 ROCKWELL PLACE,Brooklyn,11201,3020940001,3000000,BK-02,35,33,BK68,40.689427,-73.979461,40.68916,-73.979883,,New Construction,No,Non Prevailing Wage,0,0,52,0,0,0,13,13,26,0,0,0,0,0,52,0,52,52
71573,12 ROCKWELL PLACE,8/16/22,,1004938,625,FULTON STREET,625 FULTON STREET,Brooklyn,11201,3020940001,3000000,BK-02,35,33,BK68,40.688566,-73.980045,40.68916,-73.979883,,New Construction,No,Non Prevailing Wage,0,0,0,0,0,0,0,0,0,0,0,0,0,0,0,0,0,1046
73283,188-11 HILLSIDE AVENUE,8/10/22,,663635,188-11,HILLSIDE AVENUE,188-11 HILLSIDE AVENUE,Queens,11423,4104990092,4223680,QN-08,23,478,QN06,40.715188,-73.773394,40.71553,-73.773202,,New Construction,No,Non Prevailing Wage,0,0,0,0,31,0,7,15,9,0,0,0,0,0,31,0,31,101
73303,2733 EAST 12TH STREET,8/10/22,,370325,3188,SHORE PARKWAY,3188 SHORE PARKWAY,Brooklyn,11235,3087640004,3246944,BK-15,48,608,BK17,40.58476,-73.957229,40.58457,-73.957031,,New Construction,No,Non Prevailing Wage,0,0,0,0,14,0,2,9,3,0,0,0,0,0,14,0,14,45
73213,42-41 JUDGE STREET APARTMENTS,8/9/22,,669671,42-41,JUDGE STREET,42-41 JUDGE STREET,Queens,11373,4015160044,4037468,QN-04,25,271,QN29,40.744144,-73.880096,40.74419,-73.879692,,New Construction,No,Non Prevailing Wage,0,0,0,1,2,0,0,1,1,1,0,0,0,0,3,0,3,10
73291,43-17 & 43-19 108TH STREET APARTMENTS,8/9/22,,994592,108-03,44 AVENUE,108-03 44 AVENUE,Queens,11368,4019990066,4596360,QN-04,21,401,QN26,40.748207,-73.856958,40.74828,-73.857171,,New Construction,No,Non Prevailing Wage,0,0,0,0,3,0,0,3,0,0,0,0,0,0,3,0,3,7
72180,MN-405 WEST 206 STREET_MIH72091,8/4/22,,1002401,405,WEST 206 STREET,405 WEST 206 STREET,Manhattan,10034,1022030021,1000000,MN-12,10,299,MN01,40.863167,-73.917886,40.86344,-73.917603,,New Construction,No,Non Prevailing Wage,0,34,56,0,0,0,11,53,24,2,0,0,0,0,90,0,90,224
72182,MN-407 WEST 206 STREET_MIH72090,8/4/22,,1002399,407,WEST 206 STREET,407 WEST 206 STREET,Manhattan,10034,1022030009,1000000,MN-12,10,299,MN01,40.863178,-73.917911,40.86371,-73.918239,,New Construction,No,Non Prevailing Wage,0,74,116,0,0,0,19,112,56,3,0,0,0,0,190,0,190,474
73305,2057 STRAUSS STREET,8/4/22,,378166,2057,STRAUSS STREET,2057 STRAUSS STREET,Brooklyn,11212,3035550007,3000000,BK-16,41,898,BK81,40.663786,-73.915042,40.66377,-73.914761,,New Construction,No,Non Prevailing Wage,0,0,0,0,3,0,0,3,0,0,0,0,0,0,3,0,3,9
69760,299 E 161 STREET,7/28/22,,994662,299,EAST 161 STREET,299 EAST 161 STREET,Bronx,10451,2024210049,2000000,BX-04,17,173,BX14,40.825306,-73.917575,40.82553,-73.917195,,New Construction,No,Non Prevailing Wage,0,0,27,0,0,0,6,14,7,0,0,0,0,0,27,0,27,155
73233,1376 DEKALB AVENUE APARTMENTS,7/28/22,,1006418,1376,DEKALB AVENUE,1376 DEKALB AVENUE,Brooklyn,11221,3032450027,3000000,BK-04,37,421,BK78,40.699242,-73.924197,40.69911,-73.923977,,New Construction,No,Non Prevailing Wage,0,0,0,0,3,0,0,3,0,0,0,0,0,0,3,0,3,8
73767,1401 EDWARD L GRANT HIGHWAY,7/25/22,,973743,1355,SHAKESPEARE AVENUE,1355 SHAKESPEARE AVENUE,Bronx,10452,2025200045,2000000,BX-04,16,211,BX26,40.840685,-73.922214,40.84099,-73.922326,,New Construction,No,Non Prevailing Wage,0,0,0,0,14,0,3,10,1,0,0,0,0,0,14,0,14,44
70072,QN-22-61 45TH STREET AND 22-60 46TH STREET_MIH70046,7/21/22,,995279,2260,46 STREET,2260 46 STREET,Queens,11105,4007690025,4014555,QN-01,22,137,QN72,40.769275,-73.903738,40.76921,-73.904236,,New Construction,No,Non Prevailing Wage,0,0,10,0,0,0,0,1,7,2,0,0,0,0,0,10,10,35
70072,QN-22-61 45TH STREET AND 22-60 46TH STREET_MIH70046,7/21/22,,995280,2261,45 STREET,2261 45 STREET,Queens,11105,4007690042,4456705,QN-01,22,137,QN72,40.769786,-73.904419,40.76935,-73.904571,,New Construction,No,Non Prevailing Wage,0,0,19,0,0,0,1,6,10,2,0,0,0,0,19,0,19,64
73224,101 VARET STREET APARTMENTS,7/18/22,,386465,101,VARET STREET,101 VARET STREET,Brooklyn,11206,3031060029,3071522,BK-01,34,491,BK90,40.703174,-73.941371,40.70337,-73.941453,,New Construction,No,Non Prevailing Wage,0,0,0,0,3,0,2,1,0,0,0,0,0,0,3,0,3,10
73268,1050 BEDFORD AVENUE APARTMENTS,7/18/22,,205467,1050,BEDFORD AVENUE,1050 BEDFORD AVENUE,Brooklyn,11205,3019500036,3055688,BK-03,36,233,BK75,40.68905,-73.955053,40.68901,-73.955341,,New Construction,No,Non Prevailing Wage,0,0,0,0,3,0,1,2,0,0,0,0,0,0,3,0,3,9
73293,103 SCHENECTADY AVENUE,7/14/22,,367293,103,SCHENECTADY AVENUE,103 SCHENECTADY AVENUE,Brooklyn,11213,3013480006,3000000,BK-08,36,309,BK61,40.67567,-73.933244,40.67561,-73.932955,,New Construction,No,Non Prevailing Wage,0,0,0,0,3,0,0,3,0,0,0,0,0,0,3,0,3,7
73194,153 ERASMUS STREET,7/7/22,,1007001,153,ERASMUS STREET,153 ERASMUS STREET,Brooklyn,11226,3051050053,3428869,BK-17,40,824,BK95,40.649751,-73.950524,40.65001,-73.950582,,New Construction,No,Non Prevailing Wage,0,0,0,0,7,0,2,5,0,0,0,0,0,0,7,0,7,22
73217,1686 WEEKS AVENUE,7/6/22,,120802,1686,WEEKS AVENUE,1686 WEEKS AVENUE,Bronx,10457,2027920030,2007362,BX-04,15,22902,BX41,40.844045,-73.907616,40.84405,-73.907356,,New Construction,No,Non Prevailing Wage,0,0,0,0,8,0,4,4,0,0,0,0,0,0,8,0,8,25
50204,201-207 7TH AVENUE (ANCP),6/30/22,,3691,207,7 AVENUE,207 7 AVENUE,Manhattan,10011,1007970080,1014784,MN-04,3,87,MN13,40.743334,-73.996186,40.74324,-73.995965,,New Construction,No,Non Prevailing Wage,0,0,0,0,26,0,9,10,5,2,0,0,0,0,0,26,26,26
66789,JOE UPTOWN LLC - PHASE 1.YR15.FY22,6/30/22,,4187,2851,FREDERICK DOUGLASS BOULEVARD,2851 FREDERICK DOUGLASS BOULEVARD,Manhattan,10039,1020460056,1060874,MN-10,9,23502,MN03,40.82735,-73.938634,40.82749,-73.938916,,Preservation,No,Non Prevailing Wage,6,12,2,0,0,0,0,7,11,2,0,0,0,0,20,0,20,20
66789,JOE UPTOWN LLC - PHASE 1.YR15.FY22,6/30/22,,7465,184,BRADHURST AVENUE,184 BRADHURST AVENUE,Manhattan,10039,1020460022,1060857,MN-10,9,23502,MN03,40.82684,-73.940272,40.82668,-73.940073,,Preservation,No,Non Prevailing Wage,4,11,1,0,0,1,2,6,2,6,1,0,0,0,17,0,17,17
66789,JOE UPTOWN LLC - PHASE 1.YR15.FY22,6/30/22,,7477,226,BRADHURST AVENUE,226 BRADHURST AVENUE,Manhattan,10039,1020470003,1060881,MN-10,9,23502,MN03,40.828467,-73.939165,40.82841,-73.938883,,Preservation,No,Non Prevailing Wage,1,10,0,0,0,0,1,1,5,4,0,0,0,0,11,0,11,11
66789,JOE UPTOWN LLC - PHASE 1.YR15.FY22,6/30/22,,7478,230,BRADHURST AVENUE,230 BRADHURST AVENUE,Manhattan,10039,1020470004,1060882,MN-10,9,23502,MN03,40.828605,-73.939107,40.82849,-73.938839,,Preservation,No,Non Prevailing Wage,2,7,1,0,0,0,0,4,4,2,0,0,0,0,10,0,10,10
66789,JOE UPTOWN LLC - PHASE 1.YR15.FY22,6/30/22,,25515,107,MORNINGSIDE AVENUE,107 MORNINGSIDE AVENUE,Manhattan,10027,1019500064,1059285,MN-09,9,20901,MN09,40.810318,-73.954769,40.81028,-73.954426,,Preservation,No,Non Prevailing Wage,4,3,3,0,0,0,1,0,9,0,0,0,0,0,10,0,10,10
66789,JOE UPTOWN LLC - PHASE 1.YR15.FY22,6/30/22,,25516,109,MORNINGSIDE AVENUE,109 MORNINGSIDE AVENUE,Manhattan,10027,1019500063,1059284,MN-09,9,20901,MN09,40.810373,-73.954729,40.81034,-73.954382,,Preservation,No,Non Prevailing Wage,5,3,2,0,0,0,1,0,9,0,0,0,0,0,10,0,10,10
66789,JOE UPTOWN LLC - PHASE 1.YR15.FY22,6/30/22,,25517,111,MORNINGSIDE AVENUE,111 MORNINGSIDE AVENUE,Manhattan,10027,1019500062,1059283,MN-09,9,20901,MN09,40.810425,-73.954689,40.8104,-73.954342,,Preservation,No,Non Prevailing Wage,4,3,3,0,0,0,1,0,9,0,0,0,0,0,10,0,10,10
66789,JOE UPTOWN LLC - PHASE 1.YR15.FY22,6/30/22,,42491,308,WEST 151 STREET,308 WEST 151 STREET,Manhattan,10039,1020460020,1060856,MN-10,9,23502,MN03,40.826705,-73.939361,40.8268,-73.939983,,Preservation,No,Non Prevailing Wage,8,9,1,0,0,0,0,2,10,6,0,0,0,0,18,0,18,18
66789,JOE UPTOWN LLC - PHASE 1.YR15.FY22,6/30/22,,42526,302,WEST 152 STREET,302 WEST 152 STREET,Manhattan,10039,1020460039,1060867,MN-10,9,23502,MN03,40.827328,-73.938905,40.82724,-73.939281,,Preservation,No,Non Prevailing Wage,1,8,1,0,0,0,1,9,0,0,0,0,0,0,10,0,10,10
67899,BLUE SEA. 223 LINDEN STREET. LINDEN GROVE,6/30/22,,1004426,223,LINDEN STREET,223 LINDEN STREET,Brooklyn,11221,,,BK-04,37,433,BK77,40.696176,-73.916696,,,,New Construction,No,Prevailing Wage,152,0,0,0,0,1,109,43,1,0,0,0,0,0,153,0,153,153
68815,PROSPECT TRIANGLE.YR15.FY22,6/30/22,,896309,890,PROSPECT AVENUE,890 PROSPECT AVENUE,Bronx,10459,2026907502,2113129,BX-02,17,12901,BX33,40.820819,-73.901137,40.82067,-73.900823,,Preservation,No,Non Prevailing Wage,0,46,77,1,0,0,5,40,79,0,0,0,0,0,124,0,124,124
69217,SAMARITAN. SDV CLUSTER. NR REHAB,6/30/22,,73440,710,EAST 243 STREET,710 EAST 243 STREET,Bronx,10470,2051150028,2071916,BX-12,11,442,BX62,40.906251,-73.848623,40.90609,-73.848797,,Preservation,No,Non Prevailing Wage,27,0,27,0,0,0,9,26,14,5,0,0,0,0,54,0,54,54
69217,SAMARITAN. SDV CLUSTER. NR REHAB,6/30/22,,73453,738,EAST 243 STREET,738 EAST 243 STREET,Bronx,10470,2051150047,2071921,BX-12,11,442,BX62,40.906152,-73.848258,40.90578,-73.847637,,Preservation,No,Non Prevailing Wage,36,0,35,0,0,1,2,47,23,0,0,0,0,0,72,0,72,72
70115,166-20 90TH AVENUE,6/30/22,,1002857,90-02,168 STREET,90-02 168 STREET,Queens,11432,4097960063,4209632,QN-12,27,460,QN61,40.707675,-73.793344,40.70708,-73.793606,,New Construction,No,Non Prevailing Wage,0,0,108,0,0,0,0,81,27,0,0,0,0,0,108,0,108,614
70170,CRISCUOLO HOMES LP.YR15.FY22,6/30/22,,52037,854,BRONX PARK SOUTH,854 BRONX PARK SOUTH,Bronx,10467,2043360001,2000000,BX-06,15,334,BX99,40.856676,-73.875859,40.86224,-73.873047,,Preservation,No,Non Prevailing Wage,0,5,5,0,0,0,0,0,10,0,0,0,0,0,10,0,10,10
70170,CRISCUOLO HOMES LP.YR15.FY22,6/30/22,,73848,1100,EAST TREMONT AVENUE,1100 EAST TREMONT AVENUE,Bronx,10460,2039060055,2028357,BX-06,17,60,BX75,40.839982,-73.877123,40.83974,-73.877228,,Preservation,No,Non Prevailing Wage,1,18,10,0,0,1,0,1,21,8,0,0,0,0,30,0,30,30
70170,CRISCUOLO HOMES LP.YR15.FY22,6/30/22,,118554,2117,VYSE AVENUE,2117 VYSE AVENUE,Bronx,10460,2031280027,2013232,BX-06,17,363,BX17,40.844338,-73.880085,40.84443,-73.880432,,Preservation,No,Non Prevailing Wage,5,12,2,0,0,1,0,1,15,4,0,0,0,0,20,0,20,20
70170,CRISCUOLO HOMES LP.YR15.FY22,6/30/22,,833238,1945,VYSE AVENUE,1945 VYSE AVENUE,Bronx,10460,2029920052,2113077,BX-06,17,359,BX17,40.840814,-73.883092,40.84116,-73.883185,,Preservation,No,Non Prevailing Wage,12,16,17,0,0,1,0,10,26,10,0,0,0,0,46,0,46,46
70725,BROADWAY TRIANGLE SITE C,6/30/22,,1004421,88,GERRY STREET,88 GERRY STREET,Brooklyn,11206,3022690024,3061444,BK-01,33,507,BK75,40.701834,-73.946854,40.70173,-73.946551,,New Construction,No,Non Prevailing Wage,28,28,83,0,0,1,27,61,15,19,18,0,0,0,140,0,140,140
70746,TIVOLI TOWERS,6/30/22,,228500,49,CROWN STREET,49 CROWN STREET,Brooklyn,11225,3011890060,3029715,BK-09,35,213,BK63,40.667286,-73.959905,40.66765,-73.959818,,Preservation,No,Non Prevailing Wage,42,46,154,78,0,1,27,138,129,27,0,0,0,0,321,0,321,321
71469,WESTCHESTER TRIANGLE.YR15.FY22,6/30/22,,877119,871,WESTCHESTER AVENUE,871 WESTCHESTER AVENUE,Bronx,10459,2026907501,2115281,BX-02,17,12901,BX33,40.820428,-73.900141,40.82051,-73.900596,,Preservation,No,Non Prevailing Wage,1,24,44,0,0,1,19,31,20,0,0,0,0,0,70,0,70,70
73285,1988 ANTHONY AVENUE,6/30/22,,1003768,1988,ANTHONY AVENUE,1988 ANTHONY AVENUE,Bronx,10457,2028140055,2000000,BX-05,15,381,BX41,40.850968,-73.902831,40.8506,-73.90234,,New Construction,No,Non Prevailing Wage,0,0,0,0,67,0,19,34,14,0,0,0,0,0,67,0,67,68
73522,3333-BROADWAY,6/30/22,,929104,3333A,BROADWAY,3333A BROADWAY,Manhattan,10031,1020019005,1085412,MN-09,7,22302,MN06,40.819549,-73.955485,,,,Preservation,No,Non Prevailing Wage,0,0,226,339,0,0,113,170,192,85,5,0,0,0,565,0,565,565
60031,BELMONT COVE,6/29/22,,976441,656,EAST 176 STREET,656 EAST 176 STREET,Bronx,10457,2029450034,2000000,BX-06,17,36901,BX17,40.844227,-73.893184,40.84386,-73.892968,,New Construction,No,Non Prevailing Wage,39,38,75,0,0,1,12,81,45,15,0,0,0,0,153,0,153,153
63776,EBENEZER PLAZA PHASE II,6/29/22,,991993,589,CHRISTOPHER AVENUE,589 CHRISTOPHER AVENUE,Brooklyn,11212,3038610001,3428616,BK-16,42,920,BK81,40.657206,-73.902652,40.65738,-73.902205,,New Construction,No,Non Prevailing Wage,53,51,103,0,0,1,16,116,60,16,0,0,0,0,208,0,208,208
68134,HCCI 144 STREET HDFC.HUDMF.FY22,6/29/22,,41770,104,WEST 144 STREET,104 WEST 144 STREET,Manhattan,10030,1020120039,1060144,MN-10,9,232,MN03,40.819897,-73.937044,40.81986,-73.937557,,Preservation,Yes,Non Prevailing Wage,12,2,0,0,0,1,0,0,15,0,0,0,0,0,15,0,15,15
68134,HCCI 144 STREET HDFC.HUDMF.FY22,6/29/22,,41771,106,WEST 144 STREET,106 WEST 144 STREET,Manhattan,10030,1020120041,1060145,MN-10,9,232,MN03,40.819936,-73.937138,40.81991,-73.937677,6/29/22,Preservation,Yes,Non Prevailing Wage,13,2,0,0,0,0,0,0,15,0,0,0,0,0,15,0,15,15
68134,HCCI 144 STREET HDFC.HUDMF.FY22,6/29/22,,41772,108,WEST 144 STREET,108 WEST 144 STREET,Manhattan,10030,1020120042,1060146,MN-10,9,232,MN03,40.819982,-73.937247,40.81996,-73.937792,6/29/22,Preservation,Yes,Non Prevailing Wage,13,1,0,1,0,0,0,0,15,0,0,0,0,0,15,0,15,15
68134,HCCI 144 STREET HDFC.HUDMF.FY22,6/29/22,,41774,110,WEST 144 STREET,110 WEST 144 STREET,Manhattan,10030,1020120044,1060147,MN-10,9,232,MN03,40.820015,-73.937326,40.82001,-73.937911,6/29/22,Preservation,Yes,Non Prevailing Wage,13,1,1,0,0,0,0,0,15,0,0,0,0,0,15,0,15,15
73219,110 THATFORD AVENUE APARTMENTS,6/29/22,,1007042,110,THATFORD AVENUE,110 THATFORD AVENUE,Brooklyn,11212,3035220027,3425917,BK-16,41,906,BK81,40.669102,-73.909628,40.66902,-73.909967,,New Construction,No,Non Prevailing Wage,0,0,0,0,7,0,0,3,3,1,0,0,0,0,7,0,7,23
73220,664-667 NEW YORK AVENUE,6/29/22,,970788,664,NEW YORK AVENUE,664 NEW YORK AVENUE,Brooklyn,11203,3048197501,3107423,BK-09,40,804,BK60,40.657918,-73.947433,40.65764,-73.947606,,New Construction,No,Non Prevailing Wage,0,0,0,0,12,0,0,6,6,0,0,0,0,0,12,0,12,37
67981,GRAND STREET GUILD,6/28/22,,1003757,165,BROOME STREET,165 BROOME STREET,Manhattan,10002,1003410070,1000000,MN-03,1,1402,MN28,40.71672,-73.985646,40.71619,-73.984889,,New Construction,No,Non Prevailing Wage,70,46,115,0,0,1,26,103,77,26,0,0,0,0,232,0,232,232
71106,25-88 49TH STREET APARTMENTS,6/28/22,6/28/22,982686,25-88,49 STREET,25-88 49 STREET,Queens,11103,4007440080,4014000,QN-01,22,145,QN70,40.762465,-73.906238,40.76257,-73.906476,6/28/22,New Construction,No,Non Prevailing Wage,0,0,0,0,2,0,0,0,2,0,0,0,0,0,2,0,2,6
68458,LANTERN. 437 EUCLID AVE,6/24/22,,994674,437,EUCLID AVENUE,437 EUCLID AVENUE,Brooklyn,11208,,,BK-05,42,1196,BK82,40.676444,-73.87216,,,,New Construction,No,Non Prevailing Wage,88,33,13,0,0,1,81,14,32,8,0,0,0,0,135,0,135,135
68944,TQN1001 - 45-14 42ND STREET - UHAB,6/24/22,,430638,45-14,42 STREET,45-14 42 STREET,Queens,11104,4001920035,4002539,QN-02,26,18102,QN31,40.74297,-73.922545,40.74301,-73.922812,,Preservation,No,Non Prevailing Wage,0,20,0,0,0,0,4,6,10,0,0,0,0,0,20,0,20,20
71903,404 CARROLL STREET_MIH71789,6/24/22,,1000973,420,CARROLL STREET,420 CARROLL STREET,Brooklyn,11215,3004530001,3000000,BK-06,39,119,BK37,40.677928,-73.988514,40.67762,-73.98873,,New Construction,No,Non Prevailing Wage,0,36,36,17,0,0,12,49,21,7,0,0,0,0,89,0,89,360
71819,585 UNION STREET_MIH71695,6/22/22,,1000421,585,UNION STREET,585 UNION STREET,Brooklyn,11215,3004330028,3007198,BK-06,39,119,BK37,40.678559,-73.985961,40.67878,-73.985593,,New Construction,No,Non Prevailing Wage,0,23,23,10,0,0,12,12,29,3,0,0,0,0,56,0,56,224
63886,MWBE SITE C - 1510-1524 BROADWAY,6/21/22,,998370,1510,BROADWAY,1510 BROADWAY,Brooklyn,11221,3014890011,3039905,BK-16,41,373,BK79,40.686811,-73.917364,40.68661,-73.917479,,New Construction,No,Non Prevailing Wage,10,44,53,0,0,1,9,45,41,13,0,0,0,0,108,0,108,108
73222,"383 SOUTH 1ST STREET, 391 HOOPER STREET",6/21/22,,976405,391,HOOPER STREET,391 HOOPER STREET,Brooklyn,11211,3023990019,3335779,BK-01,34,513,BK73,40.710425,-73.951929,40.71055,-73.952001,,New Construction,No,Non Prevailing Wage,0,0,0,0,3,0,0,0,3,0,0,0,0,0,3,0,3,10
73768,THE BARONIAL,6/21/22,,66538,665,EAST 183 STREET,665 EAST 183 STREET,Bronx,10458,2030880054,2012504,BX-06,15,391,BX06,40.852395,-73.886885,40.8526,-73.886845,,New Construction,No,Non Prevailing Wage,0,0,0,0,4,0,0,3,1,0,0,0,0,0,4,0,4,11
73226,353 MILLER AVENUE,6/20/22,,1005567,353,MILLER AVENUE,353 MILLER AVENUE,Brooklyn,11207,,,BK-05,37,1152,BK82,40.672163,-73.891095,,,,New Construction,No,Non Prevailing Wage,0,0,0,0,5,0,0,2,3,0,0,0,0,0,5,0,5,15
73227,110 WEST 123RD STREET APARTMENTS,6/20/22,,1004683,110,WEST 123 STREET,110 WEST 123 STREET,Manhattan,10027,1019070040,1057739,MN-10,9,222,MN11,40.806744,-73.947102,40.8066,-73.947352,,New Construction,No,Non Prevailing Wage,0,0,0,0,2,0,0,0,2,0,0,0,0,0,2,0,2,6
73769,813 ELSMERE PLACE,6/20/22,,1008329,813,ELSMERE PLACE,813 ELSMERE PLACE,Bronx,10460,2029560039,2000000,BX-06,15,36502,BX17,40.843169,-73.88831,40.84311,-73.887721,,New Construction,No,Non Prevailing Wage,0,0,0,0,3,0,1,2,0,0,0,0,0,0,3,0,3,10
73770,1462 SOUTHERN BOULEVARD,6/20/22,,997806,1462,SOUTHERN BOULEVARD,1462 SOUTHERN BOULEVARD,Bronx,10460,2029810002,2010569,BX-03,17,157,BX75,40.832689,-73.890535,40.83247,-73.890323,,New Construction,No,Non Prevailing Wage,0,0,0,0,3,0,0,3,0,0,0,0,0,0,3,0,3,10
73771,1286 NEW YORK AVE APARTMENTS,6/20/22,,1003597,1286,NEW YORK AVENUE,1286 NEW YORK AVENUE,Brooklyn,11203,3049490035,3000000,BK-17,45,830,BK91,40.641764,-73.945705,40.64161,-73.945997,,New Construction,No,Non Prevailing Wage,0,0,0,0,5,0,0,4,1,0,0,0,0,0,5,0,5,14
68766,GEEL. 3095.3101 WEBSTER AVENUE,6/17/22,,1004347,3095,WEBSTER AVENUE,3095 WEBSTER AVENUE,Bronx,10467,2033310053,2000000,BX-07,11,425,BX43,40.870821,-73.877377,40.87104,-73.877608,,New Construction,No,Non Prevailing Wage,70,24,21,0,0,1,89,18,9,0,0,0,0,0,116,0,116,116
71247,2035 5TH AVENUE,6/17/22,,998761,2033,5 AVENUE,2033 5 AVENUE,Manhattan,10035,1017500001,1000000,MN-11,9,198,MN34,40.806849,-73.941933,40.80665,-73.941713,,New Construction,No,Non Prevailing Wage,0,23,22,0,8,0,23,24,6,0,0,0,0,0,53,0,53,222
66904,LOGAN FOUNTAIN,6/16/22,,999393,265,LOGAN STREET,265 LOGAN STREET,Brooklyn,11208,,,BK-05,37,1192,BK82,40.679433,-73.877317,,,,New Construction,No,Non Prevailing Wage,105,23,45,0,0,1,24,59,74,17,0,0,0,0,174,0,174,174
69259,SUS. 1600 GRAND AVE. STARHILL PHASE I,6/16/22,,1004340,1600,GRAND AVENUE,1600 GRAND AVENUE,Bronx,10453,2028650134,2008433,BX-05,14,217,BX36,40.84647,-73.916753,40.846,-73.916486,,New Construction,No,Non Prevailing Wage,213,28,84,0,0,1,161,74,91,0,0,0,0,0,326,0,326,326
73277,221 EAST 117TH STREET APARTMENTS,6/16/22,,19849,221,EAST 117 STREET,221 EAST 117 STREET,Manhattan,10035,1016670011,1000000,MN-11,8,188,MN34,40.798358,-73.93886,40.79839,-73.938401,,New Construction,No,Non Prevailing Wage,0,0,0,0,4,0,0,4,0,0,0,0,0,0,4,0,4,12
73225,25-79 31ST STREET APARTMENTS,6/14/22,,1005543,25-79,31 STREET,25-79 31 STREET,Queens,11102,4006200004,4000000,QN-01,22,6501,QN70,40.769624,-73.918568,40.76849,-73.919349,,New Construction,No,Non Prevailing Wage,0,0,0,0,7,0,0,7,0,0,0,0,0,0,7,0,7,23
70532,21-59 44TH DRIVE,6/13/22,,991583,21-59,44 DRIVE,21-59 44 DRIVE,Queens,11101,4004380001,4005176,QN-02,26,19,QN31,40.748034,-73.946922,40.74796,-73.945179,,New Construction,No,Non Prevailing Wage,0,0,0,0,6,0,0,3,3,0,0,0,0,0,6,0,6,20
67443,906 ROCKAWAY AVE.GHPP.FY22,6/10/22,,362776,906,ROCKAWAY AVENUE,906 ROCKAWAY AVENUE,Brooklyn,11212,3036250040,3082842,BK-16,42,916,BK81,40.657438,-73.907618,40.65738,-73.907907,,Preservation,No,Non Prevailing Wage,0,5,1,0,0,0,0,3,3,0,0,0,0,0,6,0,6,6
69689,BEULAH CLUSTER HDFC.Y15.FY22,6/10/22,,50398,1272,BOSTON ROAD,1272 BOSTON ROAD,Bronx,10456,2026630029,2004752,BX-03,17,151,BX35,40.830884,-73.900692,40.83083,-73.900205,,Preservation,No,Non Prevailing Wage,2,6,4,0,0,1,0,8,5,0,0,0,0,0,13,0,13,13
69689,BEULAH CLUSTER HDFC.Y15.FY22,6/10/22,,57038,1418,CLINTON AVENUE,1418 CLINTON AVENUE,Bronx,10456,2029360044,2009811,BX-03,16,151,BX35,40.834354,-73.898682,40.83447,-73.898432,,Preservation,No,Non Prevailing Wage,3,6,1,0,0,0,0,1,5,4,0,0,0,0,10,0,10,10
69689,BEULAH CLUSTER HDFC.Y15.FY22,6/10/22,,64529,426,EAST 162 STREET,426 EAST 162 STREET,Bronx,10451,2023830016,2001507,BX-03,17,141,BX35,40.824517,-73.912673,40.82429,-73.912629,,Preservation,No,Non Prevailing Wage,2,5,0,0,0,0,0,3,4,0,0,0,0,0,7,0,7,7
69689,BEULAH CLUSTER HDFC.Y15.FY22,6/10/22,,64890,493,EAST 166 STREET,493 EAST 166 STREET,Bronx,10456,2023710064,2001309,BX-03,16,185,BX35,40.828016,-73.907927,40.82825,-73.907916,,Preservation,No,Non Prevailing Wage,0,8,2,0,0,0,0,0,6,4,0,0,0,0,10,0,10,10
69689,BEULAH CLUSTER HDFC.Y15.FY22,6/10/22,,79393,918,FREEMAN STREET,918 FREEMAN STREET,Bronx,10459,2029750022,2010476,BX-03,17,125,BX35,40.830132,-73.892115,40.82991,-73.892144,,Preservation,No,Non Prevailing Wage,0,8,2,0,0,0,2,0,0,4,4,0,0,0,10,0,10,10
69689,BEULAH CLUSTER HDFC.Y15.FY22,6/10/22,,85516,1300,HOE AVENUE,1300 HOE AVENUE,Bronx,10459,2029870015,2010641,BX-03,17,123,BX75,40.831231,-73.890292,40.83111,-73.890068,,Preservation,No,Non Prevailing Wage,4,13,3,0,0,1,0,12,9,0,0,0,0,0,21,0,21,21
69689,BEULAH CLUSTER HDFC.Y15.FY22,6/10/22,,85539,1507,HOE AVENUE,1507 HOE AVENUE,Bronx,10460,2029810025,2010574,BX-03,17,157,BX75,40.833253,-73.889107,40.83372,-73.889124,,Preservation,No,Non Prevailing Wage,0,2,8,0,0,0,0,5,4,1,0,0,0,0,10,0,10,10
69689,BEULAH CLUSTER HDFC.Y15.FY22,6/10/22,,101210,4031,PARK AVENUE,4031 PARK AVENUE,Bronx,10457,2028980029,2009424,BX-03,15,165,BX01,40.843521,-73.901675,40.84359,-73.902098,,Preservation,No,Non Prevailing Wage,1,7,2,0,0,0,0,0,5,5,0,0,0,0,10,0,10,10
69689,BEULAH CLUSTER HDFC.Y15.FY22,6/10/22,,104293,1336,PROSPECT AVENUE,1336 PROSPECT AVENUE,Bronx,10459,2029700010,2010347,BX-03,17,151,BX35,40.829563,-73.8975,40.82941,-73.897182,,Preservation,No,Non Prevailing Wage,6,1,3,0,0,0,0,0,3,7,0,0,0,0,10,0,10,10
69689,BEULAH CLUSTER HDFC.Y15.FY22,6/10/22,,104326,1386,PROSPECT AVENUE,1386 PROSPECT AVENUE,Bronx,10459,2029710016,2010389,BX-03,16,153,BX75,40.831391,-73.896811,40.83137,-73.896457,,Preservation,No,Non Prevailing Wage,2,6,2,0,0,1,0,0,0,11,0,0,0,0,11,0,11,11
69689,BEULAH CLUSTER HDFC.Y15.FY22,6/10/22,,104354,1439,PROSPECT AVENUE,1439 PROSPECT AVENUE,Bronx,10456,2029370058,2009828,BX-03,16,151,BX35,40.834034,-73.896724,40.83392,-73.897016,,Preservation,No,Non Prevailing Wage,7,12,1,0,0,0,0,12,8,0,0,0,0,0,20,0,20,20
69689,BEULAH CLUSTER HDFC.Y15.FY22,6/10/22,,806625,768,EAST 168 STREET,768 EAST 168 STREET,Bronx,10456,2026620016,2097877,BX-03,17,135,BX35,40.829251,-73.900836,40.82902,-73.900977,,Preservation,No,Non Prevailing Wage,8,5,2,0,0,0,0,6,4,5,0,0,0,0,15,0,15,15
69689,BEULAH CLUSTER HDFC.Y15.FY22,6/10/22,,871098,1212,UNIVERSITY AVENUE,1212 UNIVERSITY AVENUE,Bronx,10452,2025280011,2116375,BX-04,16,199,BX26,40.838281,-73.927269,40.83806,-73.927147,,Preservation,No,Non Prevailing Wage,0,29,24,0,0,1,10,15,28,1,0,0,0,0,54,0,54,54
71822,300 EAST 83RD STREET,6/10/22,,1004173,300,EAST 83 STREET,300 EAST 83 STREET,Manhattan,10028,1015450049,1049907,MN-08,5,138,MN32,40.775767,-73.952817,40.7757,-73.952973,,New Construction,No,Non Prevailing Wage,0,0,5,0,0,0,0,1,4,0,0,0,0,0,5,0,5,70
71927,QUEENS - 43-15 52 STREET_MIH71732,6/10/22,,1004233,43-15,52 STREET,43-15 52 STREET,Queens,11377,4013210016,4315156,QN-02,26,25302,QN31,40.743792,-73.912547,40.74356,-73.912338,,New Construction,No,Non Prevailing Wage,0,9,9,3,0,0,0,11,10,0,0,0,0,0,21,0,21,87
73206,2750 & 2754 FREDERICK DOUGLAS BOULEVARD APARTMENTS,6/10/22,,1006360,2750,FREDERICK DOUGLASS BLVD,2750 FREDERICK DOUGLASS BLVD,Manhattan,10039,1020320001,1060495,MN-10,9,234,MN03,40.823599,-73.941348,40.82347,-73.941052,,New Construction,No,Non Prevailing Wage,0,0,0,0,5,0,0,3,2,0,0,0,0,0,5,0,5,14
73206,2750 & 2754 FREDERICK DOUGLAS BOULEVARD APARTMENTS,6/10/22,,1006805,2754,FREDERICK DOUGLASS BLVD,2754 FREDERICK DOUGLASS BLVD,Manhattan,10039,1020320003,1000000,MN-10,9,234,MN03,40.823706,-73.941268,40.82359,-73.940957,,New Construction,No,Non Prevailing Wage,0,0,0,0,4,0,0,4,0,0,0,0,0,0,4,0,4,13
72615,101 PATCHEN AVENUE,6/9/22,,1002891,101,PATCHEN AVENUE,101 PATCHEN AVENUE,Brooklyn,11221,3016380005,3044710,BK-03,41,385,BK35,40.688473,-73.927162,40.68851,-73.926899,,New Construction,No,Non Prevailing Wage,0,0,0,0,3,0,0,1,2,0,0,0,0,0,3,0,3,10
73202,855 EAST 167TH STREET,6/9/22,,1007043,855,EAST 167 STREET,855 EAST 167 STREET,Bronx,10459,2026920079,2005292,BX-02,17,131,BX33,40.826212,-73.897823,40.82643,-73.89757,,New Construction,No,Non Prevailing Wage,0,0,0,0,9,0,0,4,5,0,0,0,0,0,9,0,9,30
73214,1010 BEDFORD AVENUE & 263 SKILLMAN STREET,6/9/22,,975465,1006,BEDFORD AVENUE,1006 BEDFORD AVENUE,Brooklyn,11205,3019420012,3055424,BK-03,36,233,BK75,40.690541,-73.955348,40.69036,-73.955827,,New Construction,No,Non Prevailing Wage,0,0,0,0,16,0,0,4,0,12,0,0,0,0,16,0,16,52
73215,3836 - 3838 CARPENTER AVENUE APARTMENTS,6/9/22,,991506,3836,CARPENTER AVENUE,3836 CARPENTER AVENUE,Bronx,10467,2046550006,2057608,BX-12,12,394,BX44,40.885541,-73.865075,40.88549,-73.864807,,New Construction,No,Non Prevailing Wage,0,0,0,0,3,0,1,2,0,0,0,0,0,0,3,0,3,10
73215,3836 - 3838 CARPENTER AVENUE APARTMENTS,6/9/22,,1007044,3838,CARPENTER AVENUE,3838 CARPENTER AVENUE,Bronx,10467,,,BX-12,12,394,BX44,40.885582,-73.865053,,,,New Construction,No,Non Prevailing Wage,0,0,0,0,3,0,0,1,2,0,0,0,0,0,3,0,3,10
73772,1547 LELAND AVENUE,6/9/22,,989499,1547,LELAND AVENUE,1547 LELAND AVENUE,Bronx,10460,2039220014,2028649,BX-09,18,21601,BX08,40.83918,-73.864789,40.83919,-73.865075,,New Construction,No,Non Prevailing Wage,0,0,0,0,3,0,0,1,2,0,0,0,0,0,3,0,3,10
73208,"99, 101 & 103 GROVE STREET",6/7/22,,997265,103,GROVE STREET,103 GROVE STREET,Brooklyn,11221,3033140075,3000000,BK-04,34,419,BK78,40.693459,-73.920525,40.69343,-73.920897,,New Construction,No,Non Prevailing Wage,0,0,0,0,3,0,0,3,0,0,0,0,0,0,3,0,3,8
73208,"99, 101 & 103 GROVE STREET",6/7/22,,1007037,99,GROVE STREET,99 GROVE STREET,Brooklyn,11221,3033140080,3000000,BK-04,34,419,BK78,40.693385,-73.920594,40.69337,-73.920947,,New Construction,No,Non Prevailing Wage,0,0,0,0,3,0,0,3,0,0,0,0,0,0,3,0,3,8
73208,"99, 101 & 103 GROVE STREET",6/7/22,,1007038,101,GROVE STREET,101 GROVE STREET,Brooklyn,11221,3033140078,3000000,BK-04,34,419,BK78,40.693423,-73.920558,40.69343,-73.920897,,New Construction,No,Non Prevailing Wage,0,0,0,0,3,0,0,3,0,0,0,0,0,0,3,0,3,8
73221,THE MARATHON BUILDING - 31-07 38TH AVENUE,6/7/22,,1007045,31-07,38 AVENUE,31-07 38 AVENUE,Queens,11101,4003730002,4436763,QN-01,26,51,QN68,40.753713,-73.931866,40.75375,-73.931422,,New Construction,No,Non Prevailing Wage,0,0,0,0,4,0,0,2,1,1,0,0,0,0,4,0,4,12
73773,851 EAST 167TH STREET,6/7/22,,64983,851,EAST 167 STREET,851 EAST 167 STREET,Bronx,10459,2026920082,2000000,BX-02,17,131,BX33,40.82624,-73.897946,40.82644,-73.897798,,New Construction,No,Non Prevailing Wage,0,0,0,0,6,0,1,2,3,0,0,0,0,0,6,0,6,18
73774,360 FORDHAM HEIGHTS,6/7/22,,66592,360,EAST 184 STREET,360 EAST 184 STREET,Bronx,10458,2031430281,2000000,BX-05,15,38302,BX40,40.857673,-73.895602,40.85774,-73.895805,,New Construction,No,Non Prevailing Wage,0,0,0,0,4,0,1,2,1,0,0,0,0,0,4,0,4,12
73775,2339 STUART STREET APARTMENTS,6/7/22,,378706,2339,STUART STREET,2339 STUART STREET,Brooklyn,11229,3088240056,3000000,BK-15,46,632,BK17,40.599885,-73.931631,40.5999,-73.931306,,New Construction,No,Non Prevailing Wage,0,0,0,0,3,0,0,0,3,0,0,0,0,0,3,0,3,9
73210,63 LEWIS AVENUE,6/3/22,,1007024,63,LEWIS AVENUE,63 LEWIS AVENUE,Brooklyn,11206,3015890006,3000000,BK-03,36,287,BK35,40.69553,-73.937537,40.69568,-73.937151,,New Construction,No,Non Prevailing Wage,0,0,0,0,5,0,0,5,0,0,0,0,0,0,5,0,5,16
73278,1446 BRYANT AVENUE,6/3/22,,53649,1446,BRYANT AVENUE,1446 BRYANT AVENUE,Bronx,10459,2029990022,2000000,BX-03,17,123,BX75,40.831141,-73.888283,40.83114,-73.88798,,New Construction,No,Non Prevailing Wage,0,0,0,0,3,0,1,2,0,0,0,0,0,0,3,0,3,9
73777,1472 SHAKESPEARE AVENUE,6/3/22,,991719,1472,SHAKESPEARE AVENUE,1472 SHAKESPEARE AVENUE,Bronx,10452,2028720120,2008677,BX-04,16,21302,BX26,40.843749,-73.919973,40.8437,-73.919695,,New Construction,No,Non Prevailing Wage,0,0,0,0,11,0,2,3,6,0,0,0,0,0,11,0,11,34
70805,597 MARCY AVENUE,6/2/22,,1002855,597,MARCY AVENUE,597 MARCY AVENUE,Brooklyn,11206,3017590007,3000000,BK-03,36,25901,BK75,40.694529,-73.949027,40.69451,-73.948731,,New Construction,No,Non Prevailing Wage,0,0,4,0,0,0,1,1,2,0,0,0,0,0,4,0,4,20
73778,3550 LACONIA AVE,6/1/22,,1008533,3550,LACONIA AVENUE,3550 LACONIA AVENUE,Bronx,10469,2047060038,2059760,BX-12,12,368,BX44,40.875302,-73.85492,40.87524,-73.854581,,New Construction,No,Non Prevailing Wage,0,0,0,0,2,0,0,1,1,0,0,0,0,0,2,0,2,6
71246,339 W 38TH STREET,5/25/22,,32665,341,WEST 38 STREET,341 WEST 38 STREET,Manhattan,10018,1007620011,1013637,MN-04,3,115,MN15,40.755237,-73.992864,40.75569,-73.993384,,New Construction,No,Non Prevailing Wage,0,12,12,0,0,0,12,10,2,0,0,0,0,0,24,0,24,117
